- fields: {administrative_area_level_1: Lorraine, administrative_area_level_1_short_name: Lorraine,
    administrative_area_level_2: Moselle, administrative_area_level_2_short_name: '57',
    country: FR, extra_info: null, lat: '49.11579', lng: '7.11538', locality: Sarreguemines,
    postal_code: '57200', route: null, street_number: null}
  model: events.location
  pk: 12
- fields: {administrative_area_level_1: Lorraine, administrative_area_level_1_short_name: Lorraine,
    administrative_area_level_2: Moselle, administrative_area_level_2_short_name: '57',
    country: FR, extra_info: null, lat: '49.11579', lng: '7.11538', locality: Sarreguemines,
    postal_code: '57200', route: null, street_number: null}
  model: events.location
  pk: 13
- fields: {administrative_area_level_1: Saint Benoit, administrative_area_level_1_short_name: St
      Benoit, administrative_area_level_2: '', administrative_area_level_2_short_name: '974',
    country: RE, extra_info: null, lat: '-21.03410', lng: '55.71265', locality: "Saint-Beno\xEE\
      t", postal_code: '97470', route: Rue Georges Pompidou, street_number: '2'}
  model: events.location
  pk: 14
- fields: {administrative_area_level_1: '', administrative_area_level_1_short_name: '',
    administrative_area_level_2: '', administrative_area_level_2_short_name: '974',
    country: RE, extra_info: null, lat: '-20.98339', lng: '55.29536', locality: LA
      PLAINE DES PALMISTES, postal_code: '97470', route: ST BENOIT, street_number: null}
  model: events.location
  pk: 15
- fields: {administrative_area_level_1: Pays de la Loire, administrative_area_level_1_short_name: Pays
      de la Loire, administrative_area_level_2: "Vend\xE9e", administrative_area_level_2_short_name: '85',
    country: FR, extra_info: null, lat: '46.79346', lng: '-2.06178', locality: Saint-Jean-de-Monts,
    postal_code: '85160', route: "Place de l'\xC9glise", street_number: null}
  model: events.location
  pk: 16
- fields: {administrative_area_level_1: Pays de la Loire, administrative_area_level_1_short_name: Pays
      de la Loire, administrative_area_level_2: Maine-et-Loire, administrative_area_level_2_short_name: '49',
    country: FR, extra_info: null, lat: '47.56422', lng: '-0.60764', locality: Feneu,
    postal_code: '49460', route: Port Albert, street_number: null}
  model: events.location
  pk: 17
- fields: {administrative_area_level_1: "Provence-Alpes-C\xF4te d'Azur", administrative_area_level_1_short_name: PACA,
    administrative_area_level_2: Var, administrative_area_level_2_short_name: '83',
    country: FR, extra_info: null, lat: '43.35128', lng: '6.59970', locality: Sainte-Maxime,
    postal_code: '83120', route: null, street_number: null}
  model: events.location
  pk: 19
- fields: {administrative_area_level_1: Aquitaine, administrative_area_level_1_short_name: Aquitaine,
    administrative_area_level_2: Dordogne, administrative_area_level_2_short_name: '24',
    country: FR, extra_info: null, lat: '45.48505', lng: '0.38000', locality: La Rochebeaucourt-et-Argentine,
    postal_code: '24340', route: null, street_number: null}
  model: events.location
  pk: 20
- fields: {administrative_area_level_1: Aquitaine, administrative_area_level_1_short_name: Aquitaine,
    administrative_area_level_2: Dordogne, administrative_area_level_2_short_name: '24',
    country: FR, extra_info: null, lat: '45.48505', lng: '0.38000', locality: La Rochebeaucourt-et-Argentine,
    postal_code: '24340', route: null, street_number: null}
  model: events.location
  pk: 21
- fields: {administrative_area_level_1: Aquitaine, administrative_area_level_1_short_name: Aquitaine,
    administrative_area_level_2: Dordogne, administrative_area_level_2_short_name: '24',
    country: FR, extra_info: null, lat: '45.48505', lng: '0.38000', locality: La Rochebeaucourt-et-Argentine,
    postal_code: '24340', route: null, street_number: null}
  model: events.location
  pk: 22
- fields: {administrative_area_level_1: Poitou-Charentes, administrative_area_level_1_short_name: PCh,
    administrative_area_level_2: Charente-Maritime, administrative_area_level_2_short_name: '17',
    country: FR, extra_info: null, lat: '45.94746', lng: '-0.96585', locality: Rochefort,
    postal_code: '17300', route: null, street_number: null}
  model: events.location
  pk: 23
- fields: {administrative_area_level_1: Alsace, administrative_area_level_1_short_name: Alsace,
    administrative_area_level_2: Bas-Rhin, administrative_area_level_2_short_name: '67',
    country: FR, extra_info: null, lat: '48.90152', lng: '7.91060', locality: Betschdorf,
    postal_code: '67660', route: null, street_number: null}
  model: events.location
  pk: 24
- fields: {administrative_area_level_1: Alsace, administrative_area_level_1_short_name: Alsace,
    administrative_area_level_2: Bas-Rhin, administrative_area_level_2_short_name: '67',
    country: FR, extra_info: null, lat: '48.90152', lng: '7.91060', locality: Betschdorf,
    postal_code: '67660', route: null, street_number: null}
  model: events.location
  pk: 26
- fields: {administrative_area_level_1: Alsace, administrative_area_level_1_short_name: Alsace,
    administrative_area_level_2: Bas-Rhin, administrative_area_level_2_short_name: '67',
    country: FR, extra_info: null, lat: '48.90152', lng: '7.91060', locality: Betschdorf,
    postal_code: '67660', route: null, street_number: null}
  model: events.location
  pk: 27
- fields: {administrative_area_level_1: Nord-Pas-de-Calais, administrative_area_level_1_short_name: Nord-Pas-de-Calais,
    administrative_area_level_2: Pas-de-Calais, administrative_area_level_2_short_name: '62',
    country: FR, extra_info: null, lat: '50.74685', lng: '2.30495', locality: Arques,
    postal_code: '62510', route: "Chemin de l'\xE9tang", street_number: null}
  model: events.location
  pk: 29
- fields: {administrative_area_level_1: "\xCEle-de-France", administrative_area_level_1_short_name: IDF,
    administrative_area_level_2: Seine-et-Marne, administrative_area_level_2_short_name: '77',
    country: FR, extra_info: null, lat: '48.58003', lng: '2.57850', locality: Savigny-le-Temple,
    postal_code: '77176', route: null, street_number: null}
  model: events.location
  pk: 30
- fields: {administrative_area_level_1: "\xCEle-de-France", administrative_area_level_1_short_name: IDF,
    administrative_area_level_2: Seine-et-Marne, administrative_area_level_2_short_name: '77',
    country: FR, extra_info: null, lat: '48.58003', lng: '2.57850', locality: Savigny-le-Temple,
    postal_code: '77176', route: null, street_number: null}
  model: events.location
  pk: 31
- fields: {administrative_area_level_1: "Provence-Alpes-C\xF4te d'Azur", administrative_area_level_1_short_name: PACA,
    administrative_area_level_2: Bouches-du-Rhone, administrative_area_level_2_short_name: '13',
    country: FR, extra_info: null, lat: '43.30011', lng: '5.57223', locality: Aubagne,
    postal_code: '13400', route: null, street_number: null}
  model: events.location
  pk: 33
- fields: {administrative_area_level_1: Champagne-Ardenne, administrative_area_level_1_short_name: Champagne-Ardenne,
    administrative_area_level_2: Haute-Marne, administrative_area_level_2_short_name: '52',
    country: FR, extra_info: null, lat: '48.63351', lng: '4.93953', locality: Saint-Dizier,
    postal_code: '52100', route: null, street_number: null}
  model: events.location
  pk: 34
- fields: {administrative_area_level_1: Champagne-Ardenne, administrative_area_level_1_short_name: Champagne-Ardenne,
    administrative_area_level_2: Haute-Marne, administrative_area_level_2_short_name: '52',
    country: FR, extra_info: null, lat: '48.63351', lng: '4.93953', locality: Saint-Dizier,
    postal_code: '52100', route: null, street_number: null}
  model: events.location
  pk: 35
- fields: {administrative_area_level_1: Lorraine, administrative_area_level_1_short_name: Lorraine,
    administrative_area_level_2: Vosges, administrative_area_level_2_short_name: '88',
    country: FR, extra_info: null, lat: '48.27803', lng: '6.95306', locality: "Saint-Di\xE9\
      -des-Vosges", postal_code: '88100', route: null, street_number: null}
  model: events.location
  pk: 36
- fields: {administrative_area_level_1: Lorraine, administrative_area_level_1_short_name: Lorraine,
    administrative_area_level_2: Vosges, administrative_area_level_2_short_name: '88',
    country: FR, extra_info: null, lat: '48.27803', lng: '6.95306', locality: "Saint-Di\xE9\
      -des-Vosges", postal_code: '88100', route: null, street_number: null}
  model: events.location
  pk: 37
- fields: {administrative_area_level_1: Nord-Pas-de-Calais, administrative_area_level_1_short_name: Nord-Pas-de-Calais,
    administrative_area_level_2: Pas-de-Calais, administrative_area_level_2_short_name: '62',
    country: FR, extra_info: null, lat: '50.86598', lng: '1.96707', locality: "Br\xEA\
      mes", postal_code: '62610', route: Rue du Lac d'Ardres, street_number: null}
  model: events.location
  pk: 38
- fields: {administrative_area_level_1: "Provence-Alpes-C\xF4te d'Azur", administrative_area_level_1_short_name: PACA,
    administrative_area_level_2: Bouches-du-Rhone, administrative_area_level_2_short_name: '13',
    country: FR, extra_info: null, lat: '43.64993', lng: '5.07028', locality: Salon-de-Provence,
    postal_code: '13300', route: null, street_number: null}
  model: events.location
  pk: 39
- fields: {administrative_area_level_1: Nord-Pas-de-Calais, administrative_area_level_1_short_name: Nord-Pas-de-Calais,
    administrative_area_level_2: Nord, administrative_area_level_2_short_name: '59',
    country: FR, extra_info: null, lat: '50.37096', lng: '3.57083', locality: Saint-Saulve,
    postal_code: '59880', route: null, street_number: null}
  model: events.location
  pk: 40
- fields: {administrative_area_level_1: Saint-Paul, administrative_area_level_1_short_name: Saint-Paul,
    administrative_area_level_2: '', administrative_area_level_2_short_name: '974',
    country: RE, extra_info: null, lat: '-20.97860', lng: '55.31625', locality: '',
    postal_code: '97460', route: null, street_number: null}
  model: events.location
  pk: 41
- fields: {administrative_area_level_1: Auvergne, administrative_area_level_1_short_name: Auvergne,
    administrative_area_level_2: Puy-de-Dome, administrative_area_level_2_short_name: '63',
    country: FR, extra_info: null, lat: '45.51154', lng: '2.72979', locality: La Tour-d'Auvergne,
    postal_code: '63680', route: null, street_number: null}
  model: events.location
  pk: 42
- fields: {administrative_area_level_1: '', administrative_area_level_1_short_name: '',
    administrative_area_level_2: '', administrative_area_level_2_short_name: '974',
    country: RE, extra_info: null, lat: '-21.18172', lng: '55.28791', locality: ST
      LEU, postal_code: '97436', route: lagon, street_number: null}
  model: events.location
  pk: 43
- fields: {administrative_area_level_1: Nord-Pas-de-Calais, administrative_area_level_1_short_name: Nord-Pas-de-Calais,
    administrative_area_level_2: Pas-de-Calais, administrative_area_level_2_short_name: '62',
    country: FR, extra_info: null, lat: '50.20701', lng: '2.54181', locality: Saulty,
    postal_code: '62158', route: null, street_number: null}
  model: events.location
  pk: 44
- fields: {administrative_area_level_1: Rhone-Alpes, administrative_area_level_1_short_name: Rhone-Alpes,
    administrative_area_level_2: Ardeche, administrative_area_level_2_short_name: '07',
    country: FR, extra_info: null, lat: '44.73583', lng: '4.60000', locality: PRIVAS,
    postal_code: '07000', route: stade du Lac, street_number: null}
  model: events.location
  pk: 45
- fields: {administrative_area_level_1: Rhone-Alpes, administrative_area_level_1_short_name: Rhone-Alpes,
    administrative_area_level_2: Ardeche, administrative_area_level_2_short_name: '07',
    country: FR, extra_info: null, lat: '44.73583', lng: '4.60000', locality: PRIVAS,
    postal_code: '07000', route: stade du Lac, street_number: null}
  model: events.location
  pk: 46
- fields: {administrative_area_level_1: Nord-Pas-de-Calais, administrative_area_level_1_short_name: Nord-Pas-de-Calais,
    administrative_area_level_2: Pas-de-Calais, administrative_area_level_2_short_name: '62',
    country: FR, extra_info: null, lat: '50.29693', lng: '2.89677', locality: "R\u0153\
      ux", postal_code: '62118', route: null, street_number: null}
  model: events.location
  pk: 47
- fields: {administrative_area_level_1: Bretagne, administrative_area_level_1_short_name: Bretagne,
    administrative_area_level_2: Morbihan, administrative_area_level_2_short_name: '56',
    country: FR, extra_info: null, lat: '47.75113', lng: '-3.11735', locality: "Land\xE9\
      vant", postal_code: '56690', route: null, street_number: null}
  model: events.location
  pk: 48
- fields: {administrative_area_level_1: Fort-de-France, administrative_area_level_1_short_name: Fort-de-France,
    administrative_area_level_2: '', administrative_area_level_2_short_name: '972',
    country: MQ, extra_info: null, lat: '14.59171', lng: '-61.00493', locality: Le
      Lamentin, postal_code: '97232', route: null, street_number: null}
  model: events.location
  pk: 49
- fields: {administrative_area_level_1: Fort-de-France, administrative_area_level_1_short_name: Fort-de-France,
    administrative_area_level_2: '', administrative_area_level_2_short_name: '972',
    country: MQ, extra_info: null, lat: '14.59171', lng: '-61.00493', locality: Le
      Lamentin, postal_code: '97232', route: null, street_number: null}
  model: events.location
  pk: 50
- fields: {administrative_area_level_1: Aquitaine, administrative_area_level_1_short_name: Aquitaine,
    administrative_area_level_2: Dordogne, administrative_area_level_2_short_name: '24',
    country: FR, extra_info: null, lat: '44.86814', lng: '0.50688', locality: Bergerac,
    postal_code: '24100', route: null, street_number: null}
  model: events.location
  pk: 51
- fields: {administrative_area_level_1: Aquitaine, administrative_area_level_1_short_name: Aquitaine,
    administrative_area_level_2: Dordogne, administrative_area_level_2_short_name: '24',
    country: FR, extra_info: null, lat: '44.86814', lng: '0.50688', locality: Bergerac,
    postal_code: '24100', route: null, street_number: null}
  model: events.location
  pk: 52
- fields: {administrative_area_level_1: Saint-Pierre, administrative_area_level_1_short_name: Saint-Pierre,
    administrative_area_level_2: '', administrative_area_level_2_short_name: '974',
    country: RE, extra_info: null, lat: '-21.28011', lng: '55.34092', locality: "Etang-Sal\xE9\
      \ les Bains", postal_code: '97427', route: "Etang-Sal\xE9 les Bains", street_number: null}
  model: events.location
  pk: 53
- fields: {administrative_area_level_1: Nord-Pas-de-Calais, administrative_area_level_1_short_name: Nord-Pas-de-Calais,
    administrative_area_level_2: Nord, administrative_area_level_2_short_name: '59',
    country: FR, extra_info: null, lat: '50.16875', lng: '3.25120', locality: Cambrai,
    postal_code: '59400', route: null, street_number: null}
  model: events.location
  pk: 54
- fields: {administrative_area_level_1: Pays de la Loire, administrative_area_level_1_short_name: Pays
      de la Loire, administrative_area_level_2: Loire-Atlantique, administrative_area_level_2_short_name: '44',
    country: FR, extra_info: null, lat: '47.29856', lng: '-1.75385', locality: "Saint-\xC9\
      tienne-de-Montluc", postal_code: '44360', route: null, street_number: null}
  model: events.location
  pk: 55
- fields: {administrative_area_level_1: Nord-Pas-de-Calais, administrative_area_level_1_short_name: Nord-Pas-de-Calais,
    administrative_area_level_2: Pas-de-Calais, administrative_area_level_2_short_name: '62',
    country: FR, extra_info: null, lat: '50.47789', lng: '2.66787', locality: "N\u0153\
      ux-les-Mines", postal_code: '62290', route: null, street_number: null}
  model: events.location
  pk: 57
- fields: {administrative_area_level_1: "Pointe-\xE0-Pitre", administrative_area_level_1_short_name: "Pointe-\xE0\
      -Pitre", administrative_area_level_2: '', administrative_area_level_2_short_name: '971',
    country: GP, extra_info: null, lat: '16.24175', lng: '-61.53590', locality: "Pointe-\xE0\
      -Pitre", postal_code: '97110', route: 'Lauricisque ', street_number: null}
  model: events.location
  pk: 58
- fields: {administrative_area_level_1: Bretagne, administrative_area_level_1_short_name: Bretagne,
    administrative_area_level_2: Morbihan, administrative_area_level_2_short_name: '56',
    country: FR, extra_info: null, lat: '48.06511', lng: '-2.96739', locality: Pontivy,
    postal_code: '56300', route: Place Aristide Briand, street_number: null}
  model: events.location
  pk: 59
- fields: {administrative_area_level_1: "Pointe-\xE0-Pitre", administrative_area_level_1_short_name: "Pointe-\xE0\
      -Pitre", administrative_area_level_2: "Saint-Fran\xE7ois", administrative_area_level_2_short_name: '971',
    country: GP, extra_info: null, lat: '16.25434', lng: '-61.26992', locality: "Saint-Fran\xE7\
      ois", postal_code: '97118', route: D 118, street_number: null}
  model: events.location
  pk: 60
- fields: {administrative_area_level_1: Picardie, administrative_area_level_1_short_name: Picardie,
    administrative_area_level_2: Oise, administrative_area_level_2_short_name: '60',
    country: FR, extra_info: null, lat: '49.61534', lng: '2.84893', locality: Lassigny,
    postal_code: '60310', route: null, street_number: null}
  model: events.location
  pk: 61
- fields: {administrative_area_level_1: Picardie, administrative_area_level_1_short_name: Picardie,
    administrative_area_level_2: Oise, administrative_area_level_2_short_name: '60',
    country: FR, extra_info: null, lat: '49.61534', lng: '2.84893', locality: Lassigny,
    postal_code: '60310', route: null, street_number: null}
  model: events.location
  pk: 63
- fields: {administrative_area_level_1: '', administrative_area_level_1_short_name: '',
    administrative_area_level_2: '', administrative_area_level_2_short_name: '974',
    country: RE, extra_info: null, lat: '-20.96060', lng: '55.65060', locality: SAINT
      ANDRE, postal_code: '97440', route: Parc du Colosse, street_number: null}
  model: events.location
  pk: 64
- fields: {administrative_area_level_1: '', administrative_area_level_1_short_name: '',
    administrative_area_level_2: '', administrative_area_level_2_short_name: '971',
    country: GP, extra_info: null, lat: '16.21460', lng: '-61.50248', locality: GOSIER,
    postal_code: '97190', route: 'Beaumanoir ', street_number: null}
  model: events.location
  pk: 65
- fields: {administrative_area_level_1: Rhone-Alpes, administrative_area_level_1_short_name: RA,
    administrative_area_level_2: Isere, administrative_area_level_2_short_name: '38',
    country: FR, extra_info: null, lat: '45.08861', lng: '6.08484', locality: Huez,
    postal_code: '38750', route: null, street_number: null}
  model: events.location
  pk: 66
- fields: {administrative_area_level_1: '', administrative_area_level_1_short_name: '',
    administrative_area_level_2: '', administrative_area_level_2_short_name: '971',
    country: GP, extra_info: null, lat: '47.42604', lng: '-1.60075', locality: 'SAINTE-ANNE ',
    postal_code: '97180', route: 'Sainte-anne ', street_number: null}
  model: events.location
  pk: 67
- fields: {administrative_area_level_1: Auvergne, administrative_area_level_1_short_name: Auvergne,
    administrative_area_level_2: Haute-Loire, administrative_area_level_2_short_name: '43',
    country: FR, extra_info: null, lat: '45.03453', lng: '3.95094', locality: Brives-Charensac,
    postal_code: '43700', route: null, street_number: null}
  model: events.location
  pk: 68
- fields: {administrative_area_level_1: Auvergne, administrative_area_level_1_short_name: Auvergne,
    administrative_area_level_2: Haute-Loire, administrative_area_level_2_short_name: '43',
    country: FR, extra_info: null, lat: '45.03453', lng: '3.95094', locality: Brives-Charensac,
    postal_code: '43700', route: null, street_number: null}
  model: events.location
  pk: 69
- fields: {administrative_area_level_1: '', administrative_area_level_1_short_name: '',
    administrative_area_level_2: '', administrative_area_level_2_short_name: '988',
    country: NC, extra_info: null, lat: '-21.86542', lng: '166.04765', locality: BOULOUPARIS,
    postal_code: '98812', route: BOULOUPARIS, street_number: null}
  model: events.location
  pk: 70
- fields: {administrative_area_level_1: Languedoc-Roussillon, administrative_area_level_1_short_name: Languedoc-Roussillon,
    administrative_area_level_2: Aude, administrative_area_level_2_short_name: '11',
    country: FR, extra_info: null, lat: '43.21838', lng: '2.35175', locality: Carcassonne,
    postal_code: '11000', route: null, street_number: null}
  model: events.location
  pk: 71
- fields: {administrative_area_level_1: Languedoc-Roussillon, administrative_area_level_1_short_name: Languedoc-Roussillon,
    administrative_area_level_2: Aude, administrative_area_level_2_short_name: '11',
    country: FR, extra_info: null, lat: '43.21838', lng: '2.35175', locality: Carcassonne,
    postal_code: '11000', route: null, street_number: null}
  model: events.location
  pk: 74
- fields: {administrative_area_level_1: Languedoc-Roussillon, administrative_area_level_1_short_name: Languedoc-Roussillon,
    administrative_area_level_2: Aude, administrative_area_level_2_short_name: '11',
    country: FR, extra_info: null, lat: '43.31566', lng: '1.95885', locality: Castelnaudary,
    postal_code: '11400', route: null, street_number: null}
  model: events.location
  pk: 75
- fields: {administrative_area_level_1: Languedoc-Roussillon, administrative_area_level_1_short_name: Languedoc-Roussillon,
    administrative_area_level_2: Aude, administrative_area_level_2_short_name: '11',
    country: FR, extra_info: null, lat: '43.31566', lng: '1.95885', locality: Castelnaudary,
    postal_code: '11400', route: null, street_number: null}
  model: events.location
  pk: 76
- fields: {administrative_area_level_1: Burgundy, administrative_area_level_1_short_name: Burgundy,
    administrative_area_level_2: "Sa\xF4ne-et-Loire", administrative_area_level_2_short_name: '71',
    country: FR, extra_info: null, lat: '46.75250', lng: '4.83335', locality: "Chalon-sur-Sa\xF4\
      ne", postal_code: '71100', route: null, street_number: null}
  model: events.location
  pk: 77
- fields: {administrative_area_level_1: Burgundy, administrative_area_level_1_short_name: Burgundy,
    administrative_area_level_2: "Sa\xF4ne-et-Loire", administrative_area_level_2_short_name: '71',
    country: FR, extra_info: null, lat: '46.75250', lng: '4.83335', locality: "Chalon-sur-Sa\xF4\
      ne", postal_code: '71100', route: null, street_number: null}
  model: events.location
  pk: 78
- fields: {administrative_area_level_1: Pays de la Loire, administrative_area_level_1_short_name: Pays
      de la Loire, administrative_area_level_2: Mayenne, administrative_area_level_2_short_name: '53',
    country: FR, extra_info: null, lat: '48.10043', lng: '-0.78496', locality: "Chang\xE9",
    postal_code: '53810', route: Le Port, street_number: null}
  model: events.location
  pk: 79
- fields: {administrative_area_level_1: Poitou-Charentes, administrative_area_level_1_short_name: PCh,
    administrative_area_level_2: Vienne, administrative_area_level_2_short_name: '86',
    country: FR, extra_info: null, lat: '46.62155', lng: '0.40665', locality: Chasseneuil-du-Poitou,
    postal_code: '86360', route: null, street_number: null}
  model: events.location
  pk: 81
- fields: {administrative_area_level_1: Poitou-Charentes, administrative_area_level_1_short_name: PCh,
    administrative_area_level_2: Vienne, administrative_area_level_2_short_name: '86',
    country: FR, extra_info: null, lat: '46.62155', lng: '0.40665', locality: Chasseneuil-du-Poitou,
    postal_code: '86360', route: null, street_number: null}
  model: events.location
  pk: 82
- fields: {administrative_area_level_1: Poitou-Charentes, administrative_area_level_1_short_name: PCh,
    administrative_area_level_2: Vienne, administrative_area_level_2_short_name: '86',
    country: FR, extra_info: null, lat: '46.62155', lng: '0.40665', locality: Chasseneuil-du-Poitou,
    postal_code: '86360', route: null, street_number: null}
  model: events.location
  pk: 83
- fields: {administrative_area_level_1: Pays de la Loire, administrative_area_level_1_short_name: Pays
      de la Loire, administrative_area_level_2: "Vend\xE9e", administrative_area_level_2_short_name: '85',
    country: FR, extra_info: null, lat: '46.46367', lng: '-0.80214', locality: Fontenay-le-Comte,
    postal_code: '85200', route: Place de Verdun, street_number: null}
  model: events.location
  pk: 84
- fields: {administrative_area_level_1: Pays de la Loire, administrative_area_level_1_short_name: Pays
      de la Loire, administrative_area_level_2: "Vend\xE9e", administrative_area_level_2_short_name: '85',
    country: FR, extra_info: null, lat: '46.46367', lng: '-0.80214', locality: Fontenay-le-Comte,
    postal_code: '85200', route: Place de Verdun, street_number: null}
  model: events.location
  pk: 85
- fields: {administrative_area_level_1: Corse, administrative_area_level_1_short_name: Corse,
    administrative_area_level_2: Haute-Corse, administrative_area_level_2_short_name: '20',
    country: FR, extra_info: null, lat: '42.53265', lng: '9.44990', locality: Lucciana,
    postal_code: '20290', route: null, street_number: null}
  model: events.location
  pk: 86
- fields: {administrative_area_level_1: "Midi-Pyr\xE9n\xE9es", administrative_area_level_1_short_name: "Midi-Pyr\xE9\
      n\xE9es", administrative_area_level_2: Haute-Garonne, administrative_area_level_2_short_name: '31',
    country: FR, extra_info: null, lat: '43.70007', lng: '1.46764', locality: Montberon,
    postal_code: '31140', route: null, street_number: null}
  model: events.location
  pk: 87
- fields: {administrative_area_level_1: Aquitaine, administrative_area_level_1_short_name: Aquitaine,
    administrative_area_level_2: Dordogne, administrative_area_level_2_short_name: '24',
    country: FR, extra_info: null, lat: '45.18934', lng: '0.71529', locality: "P\xE9\
      rigueux", postal_code: '24000', route: null, street_number: null}
  model: events.location
  pk: 89
- fields: {administrative_area_level_1: Aquitaine, administrative_area_level_1_short_name: Aquitaine,
    administrative_area_level_2: Dordogne, administrative_area_level_2_short_name: '24',
    country: FR, extra_info: null, lat: '45.18934', lng: '0.71529', locality: "P\xE9\
      rigueux", postal_code: '24000', route: null, street_number: null}
  model: events.location
  pk: 90
- fields: {administrative_area_level_1: '', administrative_area_level_1_short_name: '',
    administrative_area_level_2: '', administrative_area_level_2_short_name: 08, country: FR,
    extra_info: null, lat: '49.75479', lng: '4.69292', locality: PRIX LES MEZIERES,
    postal_code: 08000, route: PRIX LES MEZIERES, street_number: null}
  model: events.location
  pk: 91
- fields: {administrative_area_level_1: Poitou-Charentes, administrative_area_level_1_short_name: PCh,
    administrative_area_level_2: Charente-Maritime, administrative_area_level_2_short_name: '17',
    country: FR, extra_info: null, lat: '45.75996', lng: '-0.60795', locality: Saintes,
    postal_code: '17100', route: null, street_number: null}
  model: events.location
  pk: 92
- fields: {administrative_area_level_1: Poitou-Charentes, administrative_area_level_1_short_name: PCh,
    administrative_area_level_2: Charente-Maritime, administrative_area_level_2_short_name: '17',
    country: FR, extra_info: null, lat: '45.75996', lng: '-0.60795', locality: Saintes,
    postal_code: '17100', route: null, street_number: null}
  model: events.location
  pk: 93
- fields: {administrative_area_level_1: Rhone-Alpes, administrative_area_level_1_short_name: RA,
    administrative_area_level_2: Loire, administrative_area_level_2_short_name: '42',
    country: FR, extra_info: null, lat: '45.95877', lng: '4.24028', locality: Saint-Symphorien-de-Lay,
    postal_code: '42470', route: null, street_number: null}
  model: events.location
  pk: 94
- fields: {administrative_area_level_1: Pays de la Loire, administrative_area_level_1_short_name: Pays
      de la Loire, administrative_area_level_2: Vendee, administrative_area_level_2_short_name: '85',
    country: FR, extra_info: null, lat: '46.60047', lng: '-1.67043', locality: La
      Mothe-Achard, postal_code: '85150', route: null, street_number: null}
  model: events.location
  pk: 95
- fields: {administrative_area_level_1: Pays de la Loire, administrative_area_level_1_short_name: Pays
      de la Loire, administrative_area_level_2: Vendee, administrative_area_level_2_short_name: '85',
    country: FR, extra_info: null, lat: '46.60047', lng: '-1.67043', locality: La
      Mothe-Achard, postal_code: '85150', route: null, street_number: null}
  model: events.location
  pk: 96
- fields: {administrative_area_level_1: Nord-Pas-de-Calais, administrative_area_level_1_short_name: Nord-Pas-de-Calais,
    administrative_area_level_2: Nord, administrative_area_level_2_short_name: '59',
    country: FR, extra_info: null, lat: '50.30650', lng: '3.81124', locality: Bavay,
    postal_code: '59570', route: null, street_number: null}
  model: events.location
  pk: 97
- fields: {administrative_area_level_1: Nord-Pas-de-Calais, administrative_area_level_1_short_name: Nord-Pas-de-Calais,
    administrative_area_level_2: Nord, administrative_area_level_2_short_name: '59',
    country: FR, extra_info: null, lat: '50.30650', lng: '3.81124', locality: Bavay,
    postal_code: '59570', route: null, street_number: null}
  model: events.location
  pk: 98
- fields: {administrative_area_level_1: Champagne-Ardenne, administrative_area_level_1_short_name: Champagne-Ardenne,
    administrative_area_level_2: Marne, administrative_area_level_2_short_name: '51',
    country: FR, extra_info: null, lat: '48.72200', lng: '3.72044', locality: "S\xE9\
      zanne", postal_code: '51120', route: Place du Champ Benoist, street_number: null}
  model: events.location
  pk: 99
- fields: {administrative_area_level_1: Champagne-Ardenne, administrative_area_level_1_short_name: Champagne-Ardenne,
    administrative_area_level_2: Marne, administrative_area_level_2_short_name: '51',
    country: FR, extra_info: null, lat: '48.72200', lng: '3.72044', locality: "S\xE9\
      zanne", postal_code: '51120', route: Place du Champ Benoist, street_number: null}
  model: events.location
  pk: 101
- fields: {administrative_area_level_1: Pays de la Loire, administrative_area_level_1_short_name: Pays
      de la Loire, administrative_area_level_2: Vendee, administrative_area_level_2_short_name: '85',
    country: FR, extra_info: null, lat: '46.87883', lng: '-1.02842', locality: Les
      Herbiers, postal_code: '85500', route: null, street_number: null}
  model: events.location
  pk: 102
- fields: {administrative_area_level_1: Pays de la Loire, administrative_area_level_1_short_name: Pays
      de la Loire, administrative_area_level_2: Vendee, administrative_area_level_2_short_name: '85',
    country: FR, extra_info: null, lat: '46.87883', lng: '-1.02842', locality: Les
      Herbiers, postal_code: '85500', route: null, street_number: null}
  model: events.location
  pk: 103
- fields: {administrative_area_level_1: Pays de la Loire, administrative_area_level_1_short_name: Pays
      de la Loire, administrative_area_level_2: Vendee, administrative_area_level_2_short_name: '85',
    country: FR, extra_info: null, lat: '46.87883', lng: '-1.02842', locality: Les
      Herbiers, postal_code: '85500', route: null, street_number: null}
  model: events.location
  pk: 108
- fields: {administrative_area_level_1: Nord-Pas-de-Calais, administrative_area_level_1_short_name: Nord-Pas-de-Calais,
    administrative_area_level_2: Nord, administrative_area_level_2_short_name: '59',
    country: FR, extra_info: null, lat: '50.37441', lng: '3.08855', locality: Douai,
    postal_code: '59500', route: null, street_number: null}
  model: events.location
  pk: 109
- fields: {administrative_area_level_1: Nord-Pas-de-Calais, administrative_area_level_1_short_name: Nord-Pas-de-Calais,
    administrative_area_level_2: Nord, administrative_area_level_2_short_name: '59',
    country: FR, extra_info: null, lat: '50.37441', lng: '3.08855', locality: Douai,
    postal_code: '59500', route: null, street_number: null}
  model: events.location
  pk: 110
- fields: {administrative_area_level_1: Haute-Normandie, administrative_area_level_1_short_name: Haute-Normandie,
    administrative_area_level_2: Seine-Maritime, administrative_area_level_2_short_name: '76',
    country: FR, extra_info: null, lat: '49.57889', lng: '0.81827', locality: '',
    postal_code: '76190', route: Route d'Yvetot, street_number: null}
  model: events.location
  pk: 111
- fields: {administrative_area_level_1: Haute-Normandie, administrative_area_level_1_short_name: Haute-Normandie,
    administrative_area_level_2: Seine-Maritime, administrative_area_level_2_short_name: '76',
    country: FR, extra_info: null, lat: '49.57889', lng: '0.81827', locality: '',
    postal_code: '76190', route: Route d'Yvetot, street_number: null}
  model: events.location
  pk: 112
- fields: {administrative_area_level_1: "Franche-Comt\xE9", administrative_area_level_1_short_name: "Franche-Comt\xE9",
    administrative_area_level_2: "Haute-Sa\xF4ne", administrative_area_level_2_short_name: '70',
    country: FR, extra_info: null, lat: '47.44889', lng: '5.59346', locality: Gray,
    postal_code: '70100', route: Rue Sauzay, street_number: null}
  model: events.location
  pk: 113
- fields: {administrative_area_level_1: "\xCEle-de-France", administrative_area_level_1_short_name: IDF,
    administrative_area_level_2: Seine-et-Marne, administrative_area_level_2_short_name: '77',
    country: FR, extra_info: null, lat: '48.95428', lng: '2.90854', locality: Meaux,
    postal_code: '77100', route: null, street_number: null}
  model: events.location
  pk: 115
- fields: {administrative_area_level_1: '', administrative_area_level_1_short_name: '',
    administrative_area_level_2: '', administrative_area_level_2_short_name: '971',
    country: GP, extra_info: null, lat: '16.24432', lng: '-61.51879', locality: 'POINTE-A-PITRE-BAIE-MAHAULT
      -ABYMES ', postal_code: '97110', route: 'POINTE-A-PITRE-BAIE-MAHAULT -ABYMES ',
    street_number: null}
  model: events.location
  pk: 116
- fields: {administrative_area_level_1: Limousin, administrative_area_level_1_short_name: Limousin,
    administrative_area_level_2: Correze, administrative_area_level_2_short_name: '19',
    country: FR, extra_info: null, lat: '45.38915', lng: '2.29580', locality: Neuvic,
    postal_code: '19160', route: null, street_number: null}
  model: events.location
  pk: 117
- fields: {administrative_area_level_1: Limousin, administrative_area_level_1_short_name: Limousin,
    administrative_area_level_2: Correze, administrative_area_level_2_short_name: '19',
    country: FR, extra_info: null, lat: '45.38915', lng: '2.29580', locality: Neuvic,
    postal_code: '19160', route: null, street_number: null}
  model: events.location
  pk: 118
- fields: {administrative_area_level_1: '', administrative_area_level_1_short_name: '',
    administrative_area_level_2: '', administrative_area_level_2_short_name: '971',
    country: GP, extra_info: null, lat: '16.26774', lng: '-61.58703', locality: 'BAIE-MAHAULT ',
    postal_code: '97122', route: JARRY, street_number: null}
  model: events.location
  pk: 120
- fields: {administrative_area_level_1: "\xCEle-de-France", administrative_area_level_1_short_name: IDF,
    administrative_area_level_2: Seine-et-Marne, administrative_area_level_2_short_name: '77',
    country: FR, extra_info: null, lat: '49.02153', lng: '3.04145', locality: Lizy-sur-Ourcq,
    postal_code: '77440', route: null, street_number: null}
  model: events.location
  pk: 121
- fields: {administrative_area_level_1: "\xCEle-de-France", administrative_area_level_1_short_name: IDF,
    administrative_area_level_2: Seine-et-Marne, administrative_area_level_2_short_name: '77',
    country: FR, extra_info: null, lat: '49.02153', lng: '3.04145', locality: Lizy-sur-Ourcq,
    postal_code: '77440', route: null, street_number: null}
  model: events.location
  pk: 122
- fields: {administrative_area_level_1: Poitou-Charentes, administrative_area_level_1_short_name: PCh,
    administrative_area_level_2: Deux-Sevres, administrative_area_level_2_short_name: '79',
    country: FR, extra_info: null, lat: '46.70901', lng: '-0.19847', locality: Parthenay,
    postal_code: '79200', route: null, street_number: null}
  model: events.location
  pk: 123
- fields: {administrative_area_level_1: Poitou-Charentes, administrative_area_level_1_short_name: PCh,
    administrative_area_level_2: Deux-Sevres, administrative_area_level_2_short_name: '79',
    country: FR, extra_info: null, lat: '46.70901', lng: '-0.19847', locality: Parthenay,
    postal_code: '79200', route: null, street_number: null}
  model: events.location
  pk: 124
- fields: {administrative_area_level_1: Poitou-Charentes, administrative_area_level_1_short_name: PCh,
    administrative_area_level_2: Deux-Sevres, administrative_area_level_2_short_name: '79',
    country: FR, extra_info: null, lat: '46.70901', lng: '-0.19847', locality: Parthenay,
    postal_code: '79200', route: null, street_number: null}
  model: events.location
  pk: 125
- fields: {administrative_area_level_1: "\xCEle-de-France", administrative_area_level_1_short_name: IDF,
    administrative_area_level_2: Seine-et-Marne, administrative_area_level_2_short_name: '77',
    country: FR, extra_info: null, lat: '48.85597', lng: '2.80757', locality: Serris,
    postal_code: '77700', route: null, street_number: null}
  model: events.location
  pk: 126
- fields: {administrative_area_level_1: Lorraine, administrative_area_level_1_short_name: Lorraine,
    administrative_area_level_2: Moselle, administrative_area_level_2_short_name: '57',
    country: FR, extra_info: null, lat: '49.11930', lng: '6.71839', locality: Saint-Avold,
    postal_code: '57500', route: null, street_number: null}
  model: events.location
  pk: 127
- fields: {administrative_area_level_1: Lorraine, administrative_area_level_1_short_name: Lorraine,
    administrative_area_level_2: Moselle, administrative_area_level_2_short_name: '57',
    country: FR, extra_info: null, lat: '49.11930', lng: '6.71839', locality: Saint-Avold,
    postal_code: '57500', route: null, street_number: null}
  model: events.location
  pk: 128
- fields: {administrative_area_level_1: Rhone-Alpes, administrative_area_level_1_short_name: RA,
    administrative_area_level_2: Savoie, administrative_area_level_2_short_name: '73',
    country: FR, extra_info: null, lat: '45.54791', lng: '5.99050', locality: Challes-les-Eaux,
    postal_code: '73190', route: null, street_number: null}
  model: events.location
  pk: 129
- fields: {administrative_area_level_1: Rhone-Alpes, administrative_area_level_1_short_name: RA,
    administrative_area_level_2: Savoie, administrative_area_level_2_short_name: '73',
    country: FR, extra_info: null, lat: '45.54791', lng: '5.99050', locality: Challes-les-Eaux,
    postal_code: '73190', route: null, street_number: null}
  model: events.location
  pk: 131
- fields: {administrative_area_level_1: "\xCEle-de-France", administrative_area_level_1_short_name: IDF,
    administrative_area_level_2: Essonne, administrative_area_level_2_short_name: '91',
    country: FR, extra_info: null, lat: '48.62809', lng: '2.44292', locality: "\xC9\
      vry", postal_code: '91000', route: null, street_number: null}
  model: events.location
  pk: 133
- fields: {administrative_area_level_1: Centre, administrative_area_level_1_short_name: Centre,
    administrative_area_level_2: Cher, administrative_area_level_2_short_name: '18',
    country: FR, extra_info: null, lat: '46.72434', lng: '2.52988', locality: Saint-Amand-Montrond,
    postal_code: '18200', route: null, street_number: null}
  model: events.location
  pk: 135
- fields: {administrative_area_level_1: Centre, administrative_area_level_1_short_name: Centre,
    administrative_area_level_2: Cher, administrative_area_level_2_short_name: '18',
    country: FR, extra_info: null, lat: '46.72434', lng: '2.52988', locality: Saint-Amand-Montrond,
    postal_code: '18200', route: null, street_number: null}
  model: events.location
  pk: 136
- fields: {administrative_area_level_1: Basse-Normandie, administrative_area_level_1_short_name: Basse-Normandie,
    administrative_area_level_2: Calvados, administrative_area_level_2_short_name: '14',
    country: FR, extra_info: null, lat: '49.17340', lng: '-0.36715', locality: Caen,
    postal_code: '14000', route: null, street_number: null}
  model: events.location
  pk: 137
- fields: {administrative_area_level_1: Basse-Normandie, administrative_area_level_1_short_name: Basse-Normandie,
    administrative_area_level_2: Calvados, administrative_area_level_2_short_name: '14',
    country: FR, extra_info: null, lat: '49.17340', lng: '-0.36715', locality: Caen,
    postal_code: '14000', route: null, street_number: null}
  model: events.location
  pk: 139
- fields: {administrative_area_level_1: Limousin, administrative_area_level_1_short_name: Limousin,
    administrative_area_level_2: Haute-Vienne, administrative_area_level_2_short_name: '87',
    country: FR, extra_info: null, lat: '45.78804', lng: '1.24128', locality: Condat-sur-Vienne,
    postal_code: '87920', route: null, street_number: null}
  model: events.location
  pk: 140
- fields: {administrative_area_level_1: Limousin, administrative_area_level_1_short_name: Limousin,
    administrative_area_level_2: Haute-Vienne, administrative_area_level_2_short_name: '87',
    country: FR, extra_info: null, lat: '45.78804', lng: '1.24128', locality: Condat-sur-Vienne,
    postal_code: '87920', route: null, street_number: null}
  model: events.location
  pk: 141
- fields: {administrative_area_level_1: "Provence-Alpes-C\xF4te d'Azur", administrative_area_level_1_short_name: PACA,
    administrative_area_level_2: Alpes-Maritimes, administrative_area_level_2_short_name: '06',
    country: FR, extra_info: null, lat: '43.70906', lng: '6.99905', locality: Grasse,
    postal_code: '06620', route: "Cours Honor\xE9 Cresp", street_number: null}
  model: events.location
  pk: 142
- fields: {administrative_area_level_1: Rhone-Alpes, administrative_area_level_1_short_name: Rhone-Alpes,
    administrative_area_level_2: Ain, administrative_area_level_2_short_name: '01',
    country: FR, extra_info: null, lat: '46.17944', lng: '5.20344', locality: Peronnas,
    postal_code: 01960, route: "All\xE9e des Granges Magnin", street_number: null}
  model: events.location
  pk: 143
- fields: {administrative_area_level_1: Nord-Pas-de-Calais, administrative_area_level_1_short_name: Nord-Pas-de-Calais,
    administrative_area_level_2: Pas-de-Calais, administrative_area_level_2_short_name: '62',
    country: FR, extra_info: null, lat: '50.75033', lng: '2.25149', locality: Saint-Omer,
    postal_code: '62500', route: "Place du Mar\xE9chal Foch", street_number: null}
  model: events.location
  pk: 145
- fields: {administrative_area_level_1: Nord-Pas-de-Calais, administrative_area_level_1_short_name: Nord-Pas-de-Calais,
    administrative_area_level_2: Pas-de-Calais, administrative_area_level_2_short_name: '62',
    country: FR, extra_info: null, lat: '50.75033', lng: '2.25149', locality: Saint-Omer,
    postal_code: '62500', route: "Place du Mar\xE9chal Foch", street_number: null}
  model: events.location
  pk: 146
- fields: {administrative_area_level_1: Nord-Pas-de-Calais, administrative_area_level_1_short_name: Nord-Pas-de-Calais,
    administrative_area_level_2: Pas-de-Calais, administrative_area_level_2_short_name: '62',
    country: FR, extra_info: null, lat: '50.75033', lng: '2.25149', locality: Saint-Omer,
    postal_code: '62500', route: "Place du Mar\xE9chal Foch", street_number: null}
  model: events.location
  pk: 148
- fields: {administrative_area_level_1: Lorraine, administrative_area_level_1_short_name: Lorraine,
    administrative_area_level_2: Vosges, administrative_area_level_2_short_name: '88',
    country: FR, extra_info: null, lat: '48.24983', lng: '6.41903', locality: Thaon-les-Vosges,
    postal_code: '88150', route: null, street_number: null}
  model: events.location
  pk: 149
- fields: {administrative_area_level_1: Lorraine, administrative_area_level_1_short_name: Lorraine,
    administrative_area_level_2: Vosges, administrative_area_level_2_short_name: '88',
    country: FR, extra_info: null, lat: '48.24983', lng: '6.41903', locality: Thaon-les-Vosges,
    postal_code: '88150', route: null, street_number: null}
  model: events.location
  pk: 150
- fields: {administrative_area_level_1: "Provence-Alpes-C\xF4te d'Azur", administrative_area_level_1_short_name: PACA,
    administrative_area_level_2: Var, administrative_area_level_2_short_name: '83',
    country: FR, extra_info: null, lat: '43.37962', lng: '6.08910', locality: Brignoles,
    postal_code: '83170', route: null, street_number: null}
  model: events.location
  pk: 151
- fields: {administrative_area_level_1: "Provence-Alpes-C\xF4te d'Azur", administrative_area_level_1_short_name: PACA,
    administrative_area_level_2: Var, administrative_area_level_2_short_name: '83',
    country: FR, extra_info: null, lat: '43.37962', lng: '6.08910', locality: Brignoles,
    postal_code: '83170', route: null, street_number: null}
  model: events.location
  pk: 152
- fields: {administrative_area_level_1: Basse-Normandie, administrative_area_level_1_short_name: Basse-Normandie,
    administrative_area_level_2: Orne, administrative_area_level_2_short_name: '61',
    country: FR, extra_info: null, lat: '48.53817', lng: '0.36035', locality: "Le\
      \ M\xEAle-sur-Sarthe", postal_code: '61170', route: null, street_number: null}
  model: events.location
  pk: 153
- fields: {administrative_area_level_1: "Provence-Alpes-C\xF4te d'Azur", administrative_area_level_1_short_name: PACA,
    administrative_area_level_2: Alpes-de-Haute-Provence, administrative_area_level_2_short_name: '04',
    country: FR, extra_info: null, lat: '44.10303', lng: '6.23246', locality: Digne
      les bains, postal_code: '04000', route: Site du Plan d'eau des ferreols, street_number: null}
  model: events.location
  pk: 154
- fields: {administrative_area_level_1: "Rh\xF4ne-Alpes", administrative_area_level_1_short_name: RA,
    administrative_area_level_2: "Rh\xF4ne", administrative_area_level_2_short_name: '69',
    country: FR, extra_info: null, lat: '45.74811', lng: '4.69381', locality: "Gr\xE9\
      zieu-la-Varenne", postal_code: '69290', route: Place de la Mairie, street_number: null}
  model: events.location
  pk: 155
- fields: {administrative_area_level_1: "Rh\xF4ne-Alpes", administrative_area_level_1_short_name: RA,
    administrative_area_level_2: "Rh\xF4ne", administrative_area_level_2_short_name: '69',
    country: FR, extra_info: null, lat: '45.74811', lng: '4.69381', locality: "Gr\xE9\
      zieu-la-Varenne", postal_code: '69290', route: Place de la Mairie, street_number: null}
  model: events.location
  pk: 156
- fields: {administrative_area_level_1: "Provence-Alpes-C\xF4te d'Azur", administrative_area_level_1_short_name: PACA,
    administrative_area_level_2: Hautes-Alpes, administrative_area_level_2_short_name: '05',
    country: FR, extra_info: null, lat: '44.53139', lng: '6.55699', locality: Embrun,
    postal_code: '05200', route: null, street_number: null}
  model: events.location
  pk: 157
- fields: {administrative_area_level_1: Poitou-Charentes, administrative_area_level_1_short_name: PCh,
    administrative_area_level_2: Deux-Sevres, administrative_area_level_2_short_name: '79',
    country: FR, extra_info: null, lat: '46.70901', lng: '-0.19847', locality: Parthenay,
    postal_code: '79200', route: null, street_number: null}
  model: events.location
  pk: 159
- fields: {administrative_area_level_1: Poitou-Charentes, administrative_area_level_1_short_name: PCh,
    administrative_area_level_2: Deux-Sevres, administrative_area_level_2_short_name: '79',
    country: FR, extra_info: null, lat: '46.70901', lng: '-0.19847', locality: Parthenay,
    postal_code: '79200', route: null, street_number: null}
  model: events.location
  pk: 160
- fields: {administrative_area_level_1: Nord-Pas-de-Calais, administrative_area_level_1_short_name: Nord-Pas-de-Calais,
    administrative_area_level_2: Pas-de-Calais, administrative_area_level_2_short_name: '62',
    country: FR, extra_info: null, lat: '50.75033', lng: '2.25149', locality: Saint-Omer,
    postal_code: '62500', route: "Place du Mar\xE9chal Foch", street_number: null}
  model: events.location
  pk: 162
- fields: {administrative_area_level_1: Nord-Pas-de-Calais, administrative_area_level_1_short_name: Nord-Pas-de-Calais,
    administrative_area_level_2: Pas-de-Calais, administrative_area_level_2_short_name: '62',
    country: FR, extra_info: null, lat: '50.75033', lng: '2.25149', locality: Saint-Omer,
    postal_code: '62500', route: "Place du Mar\xE9chal Foch", street_number: null}
  model: events.location
  pk: 163
- fields: {administrative_area_level_1: Nord-Pas-de-Calais, administrative_area_level_1_short_name: Nord-Pas-de-Calais,
    administrative_area_level_2: Nord, administrative_area_level_2_short_name: '59',
    country: FR, extra_info: null, lat: '50.97824', lng: '2.12881', locality: Gravelines,
    postal_code: '59820', route: Rue du Guindal, street_number: '1'}
  model: events.location
  pk: 165
- fields: {administrative_area_level_1: "\xCEle-de-France", administrative_area_level_1_short_name: IDF,
    administrative_area_level_2: Essonne, administrative_area_level_2_short_name: '91',
    country: FR, extra_info: null, lat: '48.61653', lng: '2.37505', locality: Bondoufle,
    postal_code: '91070', route: "Impasse Ren\xE9 Lacoste", street_number: '3'}
  model: events.location
  pk: 166
- fields: {administrative_area_level_1: "\xCEle-de-France", administrative_area_level_1_short_name: IDF,
    administrative_area_level_2: Essonne, administrative_area_level_2_short_name: '91',
    country: FR, extra_info: null, lat: '48.61653', lng: '2.37505', locality: Bondoufle,
    postal_code: '91070', route: "Impasse Ren\xE9 Lacoste", street_number: '3'}
  model: events.location
  pk: 168
- fields: {administrative_area_level_1: '', administrative_area_level_1_short_name: '',
    administrative_area_level_2: '', administrative_area_level_2_short_name: '974',
    country: RE, extra_info: null, lat: '-21.08102', lng: '55.23091', locality: St
      gilles les bains, postal_code: '97434', route: plages des brisants, street_number: null}
  model: events.location
  pk: 169
- fields: {administrative_area_level_1: "Midi-Pyr\xE9n\xE9es", administrative_area_level_1_short_name: "Midi-Pyr\xE9\
      n\xE9es", administrative_area_level_2: Gers, administrative_area_level_2_short_name: '32',
    country: FR, extra_info: null, lat: '43.64570', lng: '0.57307', locality: Auch,
    postal_code: '32000', route: null, street_number: null}
  model: events.location
  pk: 170
- fields: {administrative_area_level_1: Bretagne, administrative_area_level_1_short_name: Bretagne,
    administrative_area_level_2: Ille-et-Vilaine, administrative_area_level_2_short_name: '35',
    country: FR, extra_info: null, lat: '48.17786', lng: '-1.64618', locality: Betton,
    postal_code: '35830', route: null, street_number: null}
  model: events.location
  pk: 172
- fields: {administrative_area_level_1: Haute-Normandie, administrative_area_level_1_short_name: Haute-Normandie,
    administrative_area_level_2: Eure, administrative_area_level_2_short_name: '27',
    country: FR, extra_info: null, lat: '49.01297', lng: '1.37325', locality: Fains,
    postal_code: '27120', route: null, street_number: null}
  model: events.location
  pk: 173
- fields: {administrative_area_level_1: Rhone-Alpes, administrative_area_level_1_short_name: RA,
    administrative_area_level_2: Loire, administrative_area_level_2_short_name: '42',
    country: FR, extra_info: null, lat: '46.06976', lng: '4.07528', locality: Roanne,
    postal_code: '42300', route: null, street_number: null}
  model: events.location
  pk: 174
- fields: {administrative_area_level_1: '', administrative_area_level_1_short_name: '',
    administrative_area_level_2: '', administrative_area_level_2_short_name: '974',
    country: RE, extra_info: null, lat: '46.72927', lng: '4.50120', locality: Saint
      Leu, postal_code: '97436', route: St Leu Le Volcan, street_number: null}
  model: events.location
  pk: 175
- fields: {administrative_area_level_1: '', administrative_area_level_1_short_name: '',
    administrative_area_level_2: '', administrative_area_level_2_short_name: '971',
    country: GP, extra_info: null, lat: '16.23333', lng: '-61.38333', locality: 'SAINTE-ANNE ',
    postal_code: '97180', route: 'plage Bourg de Sainte-anne ', street_number: null}
  model: events.location
  pk: 176
- fields: {administrative_area_level_1: Alsace, administrative_area_level_1_short_name: Alsace,
    administrative_area_level_2: Bas-Rhin, administrative_area_level_2_short_name: '67',
    country: FR, extra_info: null, lat: '48.53252', lng: '7.38722', locality: Mutzig,
    postal_code: '67190', route: null, street_number: null}
  model: events.location
  pk: 177
- fields: {administrative_area_level_1: Alsace, administrative_area_level_1_short_name: Alsace,
    administrative_area_level_2: Bas-Rhin, administrative_area_level_2_short_name: '67',
    country: FR, extra_info: null, lat: '48.53252', lng: '7.38722', locality: Mutzig,
    postal_code: '67190', route: null, street_number: null}
  model: events.location
  pk: 178
- fields: {administrative_area_level_1: '', administrative_area_level_1_short_name: '',
    administrative_area_level_2: '', administrative_area_level_2_short_name: '974',
    country: RE, extra_info: null, lat: '-21.16640', lng: '55.28690', locality: Saint-Leu,
    postal_code: '97436', route: Saint-Leu, street_number: null}
  model: events.location
  pk: 179
- fields: {administrative_area_level_1: Centre, administrative_area_level_1_short_name: Centre,
    administrative_area_level_2: Eure-et-Loir, administrative_area_level_2_short_name: '28',
    country: FR, extra_info: null, lat: '48.44395', lng: '1.50355', locality: Chartres,
    postal_code: '28000', route: null, street_number: null}
  model: events.location
  pk: 180
- fields: {administrative_area_level_1: Nord-Pas-de-Calais, administrative_area_level_1_short_name: Nord-Pas-de-Calais,
    administrative_area_level_2: Nord, administrative_area_level_2_short_name: '59',
    country: FR, extra_info: null, lat: '50.64642', lng: '2.98539', locality: Capinghem,
    postal_code: '59160', route: null, street_number: null}
  model: events.location
  pk: 181
- fields: {administrative_area_level_1: Aquitaine, administrative_area_level_1_short_name: Aquitaine,
    administrative_area_level_2: Gironde, administrative_area_level_2_short_name: '33',
    country: FR, extra_info: null, lat: '44.51073', lng: '-0.63937', locality: Hostens,
    postal_code: '33125', route: null, street_number: null}
  model: events.location
  pk: 182
- fields: {administrative_area_level_1: Bretagne, administrative_area_level_1_short_name: Bretagne,
    administrative_area_level_2: "Finist\xE8re", administrative_area_level_2_short_name: '29',
    country: FR, extra_info: null, lat: '48.49293', lng: '-4.04123', locality: Lampaul-Guimiliau,
    postal_code: '29400', route: Place du Villers, street_number: '6'}
  model: events.location
  pk: 183
- fields: {administrative_area_level_1: Bretagne, administrative_area_level_1_short_name: Bretagne,
    administrative_area_level_2: "Finist\xE8re", administrative_area_level_2_short_name: '29',
    country: FR, extra_info: null, lat: '48.49293', lng: '-4.04123', locality: Lampaul-Guimiliau,
    postal_code: '29400', route: Place du Villers, street_number: '6'}
  model: events.location
  pk: 184
- fields: {administrative_area_level_1: Bretagne, administrative_area_level_1_short_name: Bretagne,
    administrative_area_level_2: "Finist\xE8re", administrative_area_level_2_short_name: '29',
    country: FR, extra_info: null, lat: '48.49293', lng: '-4.04123', locality: Lampaul-Guimiliau,
    postal_code: '29400', route: Place du Villers, street_number: '6'}
  model: events.location
  pk: 185
- fields: {administrative_area_level_1: "Provence-Alpes-C\xF4te d'Azur", administrative_area_level_1_short_name: PACA,
    administrative_area_level_2: Var, administrative_area_level_2_short_name: '83',
    country: FR, extra_info: null, lat: '43.48998', lng: '6.35452', locality: Lorgues,
    postal_code: '83510', route: null, street_number: null}
  model: events.location
  pk: 186
- fields: {administrative_area_level_1: Auvergne, administrative_area_level_1_short_name: Auvergne,
    administrative_area_level_2: Allier, administrative_area_level_2_short_name: '03',
    country: FR, extra_info: null, lat: '46.29957', lng: '2.51033', locality: PREMILHAT,
    postal_code: '03410', route: SAULT, street_number: null}
  model: events.location
  pk: 187
- fields: {administrative_area_level_1: Auvergne, administrative_area_level_1_short_name: Auvergne,
    administrative_area_level_2: Allier, administrative_area_level_2_short_name: '03',
    country: FR, extra_info: null, lat: '46.29957', lng: '2.51033', locality: PREMILHAT,
    postal_code: '03410', route: SAULT, street_number: null}
  model: events.location
  pk: 189
- fields: {administrative_area_level_1: "Provence-Alpes-C\xF4te d'Azur", administrative_area_level_1_short_name: PACA,
    administrative_area_level_2: Alpes-Maritimes, administrative_area_level_2_short_name: '06',
    country: FR, extra_info: null, lat: '43.69505', lng: '7.25991', locality: Nice,
    postal_code: '06000', route: null, street_number: null}
  model: events.location
  pk: 192
- fields: {administrative_area_level_1: "Provence-Alpes-C\xF4te d'Azur", administrative_area_level_1_short_name: PACA,
    administrative_area_level_2: Alpes-Maritimes, administrative_area_level_2_short_name: '06',
    country: FR, extra_info: null, lat: '43.69505', lng: '7.25991', locality: Nice,
    postal_code: '06000', route: null, street_number: null}
  model: events.location
  pk: 193
- fields: {administrative_area_level_1: "Provence-Alpes-C\xF4te d'Azur", administrative_area_level_1_short_name: PACA,
    administrative_area_level_2: Alpes-Maritimes, administrative_area_level_2_short_name: '06',
    country: FR, extra_info: null, lat: '43.70079', lng: '6.03854', locality: SAINT
      LAURENT DU VAR, postal_code: '06700', route: "Esplanade des go\xE9lands", street_number: null}
  model: events.location
  pk: 194
- fields: {administrative_area_level_1: "Provence-Alpes-C\xF4te d'Azur", administrative_area_level_1_short_name: PACA,
    administrative_area_level_2: Alpes-Maritimes, administrative_area_level_2_short_name: '06',
    country: FR, extra_info: null, lat: '43.70079', lng: '6.03854', locality: SAINT
      LAURENT DU VAR, postal_code: '06700', route: "Esplanade des go\xE9lands", street_number: null}
  model: events.location
  pk: 195
- fields: {administrative_area_level_1: Poitou-Charentes, administrative_area_level_1_short_name: PCh,
    administrative_area_level_2: Charente, administrative_area_level_2_short_name: '16',
    country: FR, extra_info: null, lat: '45.69481', lng: '-0.32620', locality: Cognac,
    postal_code: '16100', route: null, street_number: null}
  model: events.location
  pk: 196
- fields: {administrative_area_level_1: Centre, administrative_area_level_1_short_name: Centre,
    administrative_area_level_2: Indre-et-Loire, administrative_area_level_2_short_name: '37',
    country: FR, extra_info: null, lat: '47.33938', lng: '0.66303', locality: "Jou\xE9\
      -l\xE8s-Tours", postal_code: '37300', route: null, street_number: null}
  model: events.location
  pk: 197
- fields: {administrative_area_level_1: Centre, administrative_area_level_1_short_name: Centre,
    administrative_area_level_2: Indre-et-Loire, administrative_area_level_2_short_name: '37',
    country: FR, extra_info: null, lat: '47.33938', lng: '0.66303', locality: "Jou\xE9\
      -l\xE8s-Tours", postal_code: '37300', route: null, street_number: null}
  model: events.location
  pk: 198
- fields: {administrative_area_level_1: "Provence-Alpes-C\xF4te d'Azur", administrative_area_level_1_short_name: PACA,
    administrative_area_level_2: Var, administrative_area_level_2_short_name: '83',
    country: FR, extra_info: null, lat: '43.16446', lng: '6.41306', locality: Le Lavandou,
    postal_code: '83980', route: null, street_number: null}
  model: events.location
  pk: 199
- fields: {administrative_area_level_1: "Provence-Alpes-C\xF4te d'Azur", administrative_area_level_1_short_name: PACA,
    administrative_area_level_2: Var, administrative_area_level_2_short_name: '83',
    country: FR, extra_info: null, lat: '43.16446', lng: '6.41306', locality: Le Lavandou,
    postal_code: '83980', route: null, street_number: null}
  model: events.location
  pk: 200
- fields: {administrative_area_level_1: Pays de la Loire, administrative_area_level_1_short_name: Pays
      de la Loire, administrative_area_level_2: Vendee, administrative_area_level_2_short_name: '85',
    country: FR, extra_info: null, lat: '46.70323', lng: '-1.89335', locality: Saint-Gilles-Croix-de-Vie,
    postal_code: '85800', route: null, street_number: null}
  model: events.location
  pk: 201
- fields: {administrative_area_level_1: Pays de la Loire, administrative_area_level_1_short_name: Pays
      de la Loire, administrative_area_level_2: Vendee, administrative_area_level_2_short_name: '85',
    country: FR, extra_info: null, lat: '46.70323', lng: '-1.89335', locality: Saint-Gilles-Croix-de-Vie,
    postal_code: '85800', route: null, street_number: null}
  model: events.location
  pk: 202
- fields: {administrative_area_level_1: Bretagne, administrative_area_level_1_short_name: Bretagne,
    administrative_area_level_2: Morbihan, administrative_area_level_2_short_name: '56',
    country: FR, extra_info: null, lat: '47.63850', lng: '-2.77240', locality: Vannes,
    postal_code: '56000', route: "Chemin de Cliscou\xEBt \xC0 Conleau", street_number: null}
  model: events.location
  pk: 203
- fields: {administrative_area_level_1: "Provence-Alpes-C\xF4te d'Azur", administrative_area_level_1_short_name: PACA,
    administrative_area_level_2: Var, administrative_area_level_2_short_name: '83',
    country: FR, extra_info: null, lat: '43.56186', lng: '6.43969', locality: Draguignan,
    postal_code: '83300', route: null, street_number: null}
  model: events.location
  pk: 204
- fields: {administrative_area_level_1: '', administrative_area_level_1_short_name: '',
    administrative_area_level_2: '', administrative_area_level_2_short_name: '974',
    country: RE, extra_info: null, lat: '47.52612', lng: '-2.85387', locality: LA
      SALINE LES HAUTS, postal_code: '97435', route: LA SALINE LES HAUTS, street_number: null}
  model: events.location
  pk: 205
- fields: {administrative_area_level_1: "Provence-Alpes-C\xF4te d'Azur", administrative_area_level_1_short_name: PACA,
    administrative_area_level_2: Alpes-Maritimes, administrative_area_level_2_short_name: '68',
    country: FR, extra_info: null, lat: '43.71657', lng: '7.15330', locality: CAGNES
      SUR MER, postal_code: 06800, route: esplanade du bord de mer, street_number: null}
  model: events.location
  pk: 206
- fields: {administrative_area_level_1: "Provence-Alpes-C\xF4te d'Azur", administrative_area_level_1_short_name: PACA,
    administrative_area_level_2: Alpes-Maritimes, administrative_area_level_2_short_name: '68',
    country: FR, extra_info: null, lat: '43.71657', lng: '7.15330', locality: CAGNES
      SUR MER, postal_code: 06800, route: esplanade du bord de mer, street_number: null}
  model: events.location
  pk: 207
- fields: {administrative_area_level_1: "Provence-Alpes-C\xF4te d'Azur", administrative_area_level_1_short_name: PACA,
    administrative_area_level_2: Alpes-Maritimes, administrative_area_level_2_short_name: '06',
    country: FR, extra_info: null, lat: '43.58369', lng: '7.12573', locality: ANTIBES,
    postal_code: '06600', route: PLAGE DE LA SALIS, street_number: null}
  model: events.location
  pk: 208
- fields: {administrative_area_level_1: "Provence-Alpes-C\xF4te d'Azur", administrative_area_level_1_short_name: PACA,
    administrative_area_level_2: Alpes-Maritimes, administrative_area_level_2_short_name: '06',
    country: FR, extra_info: null, lat: '43.58369', lng: '7.12573', locality: ANTIBES,
    postal_code: '06600', route: PLAGE DE LA SALIS, street_number: null}
  model: events.location
  pk: 209
- fields: {administrative_area_level_1: "Provence-Alpes-C\xF4te d'Azur", administrative_area_level_1_short_name: PACA,
    administrative_area_level_2: Alpes-Maritimes, administrative_area_level_2_short_name: '06',
    country: FR, extra_info: null, lat: '43.58369', lng: '7.12573', locality: ANTIBES,
    postal_code: '06600', route: PLAGE DE LA SALIS, street_number: null}
  model: events.location
  pk: 210
- fields: {administrative_area_level_1: "Provence-Alpes-C\xF4te d'Azur", administrative_area_level_1_short_name: PACA,
    administrative_area_level_2: Alpes-Maritimes, administrative_area_level_2_short_name: '06',
    country: FR, extra_info: null, lat: '43.58369', lng: '7.12573', locality: ANTIBES,
    postal_code: '06600', route: PLAGE DE LA SALIS, street_number: null}
  model: events.location
  pk: 211
- fields: {administrative_area_level_1: Bretagne, administrative_area_level_1_short_name: Bretagne,
    administrative_area_level_2: Morbihan, administrative_area_level_2_short_name: '56',
    country: FR, extra_info: null, lat: '48.06154', lng: '-2.98474', locality: Pontivy,
    postal_code: '56300', route: null, street_number: null}
  model: events.location
  pk: 212
- fields: {administrative_area_level_1: Bretagne, administrative_area_level_1_short_name: Bretagne,
    administrative_area_level_2: Morbihan, administrative_area_level_2_short_name: '56',
    country: FR, extra_info: null, lat: '48.06154', lng: '-2.98474', locality: Pontivy,
    postal_code: '56300', route: null, street_number: null}
  model: events.location
  pk: 213
- fields: {administrative_area_level_1: Lorraine, administrative_area_level_1_short_name: Lorraine,
    administrative_area_level_2: Moselle, administrative_area_level_2_short_name: '57',
    country: FR, extra_info: null, lat: '49.05999', lng: '7.51396', locality: Bitche,
    postal_code: '57230', route: null, street_number: null}
  model: events.location
  pk: 214
- fields: {administrative_area_level_1: Nord-Pas-de-Calais, administrative_area_level_1_short_name: Nord-Pas-de-Calais,
    administrative_area_level_2: Pas-de-Calais, administrative_area_level_2_short_name: '62',
    country: FR, extra_info: null, lat: '50.26390', lng: '2.76044', locality: Achicourt,
    postal_code: '62217', route: null, street_number: null}
  model: events.location
  pk: 215
- fields: {administrative_area_level_1: Nord-Pas-de-Calais, administrative_area_level_1_short_name: Nord-Pas-de-Calais,
    administrative_area_level_2: Pas-de-Calais, administrative_area_level_2_short_name: '62',
    country: FR, extra_info: null, lat: '50.26390', lng: '2.76044', locality: Achicourt,
    postal_code: '62217', route: null, street_number: null}
  model: events.location
  pk: 216
- fields: {administrative_area_level_1: Languedoc-Roussillon, administrative_area_level_1_short_name: Languedoc-Roussillon,
    administrative_area_level_2: Aude, administrative_area_level_2_short_name: '11',
    country: FR, extra_info: null, lat: '43.15494', lng: '2.99756', locality: Narbonne,
    postal_code: '11100', route: null, street_number: null}
  model: events.location
  pk: 218
- fields: {administrative_area_level_1: Languedoc-Roussillon, administrative_area_level_1_short_name: Languedoc-Roussillon,
    administrative_area_level_2: Aude, administrative_area_level_2_short_name: '11',
    country: FR, extra_info: null, lat: '43.15494', lng: '2.99756', locality: Narbonne,
    postal_code: '11100', route: null, street_number: null}
  model: events.location
  pk: 219
- fields: {administrative_area_level_1: Haute-Normandie, administrative_area_level_1_short_name: Haute-Normandie,
    administrative_area_level_2: Seine-Maritime, administrative_area_level_2_short_name: '76',
    country: FR, extra_info: null, lat: '49.62761', lng: '0.72975', locality: Yvetot,
    postal_code: '76190', route: null, street_number: null}
  model: events.location
  pk: 220
- fields: {administrative_area_level_1: "Franche-Comt\xE9", administrative_area_level_1_short_name: "Franche-Comt\xE9",
    administrative_area_level_2: Territoire de Belfort, administrative_area_level_2_short_name: '90',
    country: FR, extra_info: null, lat: '47.64376', lng: '6.84371', locality: Belfort,
    postal_code: '90000', route: null, street_number: null}
  model: events.location
  pk: 221
- fields: {administrative_area_level_1: "Franche-Comt\xE9", administrative_area_level_1_short_name: "Franche-Comt\xE9",
    administrative_area_level_2: Territoire de Belfort, administrative_area_level_2_short_name: '90',
    country: FR, extra_info: null, lat: '47.64376', lng: '6.84371', locality: Belfort,
    postal_code: '90000', route: null, street_number: null}
  model: events.location
  pk: 222
- fields: {administrative_area_level_1: Auvergne, administrative_area_level_1_short_name: Auvergne,
    administrative_area_level_2: Puy-de-Dome, administrative_area_level_2_short_name: '63',
    country: FR, extra_info: null, lat: '45.71598', lng: '3.23249', locality: Cournon-d'Auvergne,
    postal_code: '63800', route: null, street_number: null}
  model: events.location
  pk: 223
- fields: {administrative_area_level_1: Pays de la Loire, administrative_area_level_1_short_name: Pays
      de la Loire, administrative_area_level_2: "Vend\xE9e", administrative_area_level_2_short_name: '85',
    country: FR, extra_info: null, lat: '46.85311', lng: '-1.11962', locality: mesnard
      la barotiere, postal_code: '85500', route: null, street_number: null}
  model: events.location
  pk: 224
- fields: {administrative_area_level_1: Pays de la Loire, administrative_area_level_1_short_name: Pays
      de la Loire, administrative_area_level_2: "Vend\xE9e", administrative_area_level_2_short_name: '85',
    country: FR, extra_info: null, lat: '46.85311', lng: '-1.11962', locality: mesnard
      la barotiere, postal_code: '85500', route: null, street_number: null}
  model: events.location
  pk: 225
- fields: {administrative_area_level_1: Haute-Normandie, administrative_area_level_1_short_name: Haute-Normandie,
    administrative_area_level_2: Seine-Maritime, administrative_area_level_2_short_name: '76',
    country: FR, extra_info: null, lat: '49.46693', lng: '1.08722', locality: Mont-Saint-Aignan,
    postal_code: '76130', route: null, street_number: null}
  model: events.location
  pk: 226
- fields: {administrative_area_level_1: Rhone-Alpes, administrative_area_level_1_short_name: RA,
    administrative_area_level_2: "Rh\xF4ne", administrative_area_level_2_short_name: '69',
    country: FR, extra_info: null, lat: '45.71196', lng: '4.93870', locality: Saint-Priest,
    postal_code: '69800', route: null, street_number: null}
  model: events.location
  pk: 227
- fields: {administrative_area_level_1: Rhone-Alpes, administrative_area_level_1_short_name: RA,
    administrative_area_level_2: "Rh\xF4ne", administrative_area_level_2_short_name: '69',
    country: FR, extra_info: null, lat: '45.71196', lng: '4.93870', locality: Saint-Priest,
    postal_code: '69800', route: null, street_number: null}
  model: events.location
  pk: 228
- fields: {administrative_area_level_1: Rhone-Alpes, administrative_area_level_1_short_name: RA,
    administrative_area_level_2: "Rh\xF4ne", administrative_area_level_2_short_name: '69',
    country: FR, extra_info: null, lat: '45.77127', lng: '4.88445', locality: Villeurbanne,
    postal_code: '69100', route: null, street_number: null}
  model: events.location
  pk: 229
- fields: {administrative_area_level_1: Rhone-Alpes, administrative_area_level_1_short_name: RA,
    administrative_area_level_2: "Rh\xF4ne", administrative_area_level_2_short_name: '69',
    country: FR, extra_info: null, lat: '45.77127', lng: '4.88445', locality: Villeurbanne,
    postal_code: '69100', route: null, street_number: null}
  model: events.location
  pk: 230
- fields: {administrative_area_level_1: Rhone-Alpes, administrative_area_level_1_short_name: RA,
    administrative_area_level_2: Isere, administrative_area_level_2_short_name: '38',
    country: FR, extra_info: null, lat: '45.39718', lng: '4.77852', locality: "Le\
      \ P\xE9age-de-Roussillon", postal_code: '38550', route: null, street_number: null}
  model: events.location
  pk: 231
- fields: {administrative_area_level_1: Rhone-Alpes, administrative_area_level_1_short_name: RA,
    administrative_area_level_2: Isere, administrative_area_level_2_short_name: '38',
    country: FR, extra_info: null, lat: '45.39718', lng: '4.77852', locality: "Le\
      \ P\xE9age-de-Roussillon", postal_code: '38550', route: null, street_number: null}
  model: events.location
  pk: 232
- fields: {administrative_area_level_1: '', administrative_area_level_1_short_name: '',
    administrative_area_level_2: '', administrative_area_level_2_short_name: '971',
    country: GP, extra_info: null, lat: '16.21460', lng: '-61.50248', locality: GOSIER,
    postal_code: '97190', route: 'plage de l''Anse Tabarin ', street_number: null}
  model: events.location
  pk: 233
- fields: {administrative_area_level_1: '', administrative_area_level_1_short_name: '',
    administrative_area_level_2: '', administrative_area_level_2_short_name: '971',
    country: GP, extra_info: null, lat: '16.21460', lng: '-61.50248', locality: GOSIER,
    postal_code: '97190', route: 'plage de l''Anse Tabarin ', street_number: null}
  model: events.location
  pk: 234
- fields: {administrative_area_level_1: "Provence-Alpes-C\xF4te d'Azur", administrative_area_level_1_short_name: PACA,
    administrative_area_level_2: Var, administrative_area_level_2_short_name: '83',
    country: FR, extra_info: null, lat: '43.09831', lng: '6.03087', locality: Le Pradet,
    postal_code: '83220', route: null, street_number: null}
  model: events.location
  pk: 235
- fields: {administrative_area_level_1: "Provence-Alpes-C\xF4te d'Azur", administrative_area_level_1_short_name: PACA,
    administrative_area_level_2: Var, administrative_area_level_2_short_name: '83',
    country: FR, extra_info: null, lat: '43.09831', lng: '6.03087', locality: Le Pradet,
    postal_code: '83220', route: null, street_number: null}
  model: events.location
  pk: 237
- fields: {administrative_area_level_1: Haute-Normandie, administrative_area_level_1_short_name: Haute-Normandie,
    administrative_area_level_2: Eure, administrative_area_level_2_short_name: '27',
    country: FR, extra_info: null, lat: '48.85502', lng: '1.05853', locality: Damville,
    postal_code: '27240', route: null, street_number: null}
  model: events.location
  pk: 238
- fields: {administrative_area_level_1: Haute-Normandie, administrative_area_level_1_short_name: Haute-Normandie,
    administrative_area_level_2: Eure, administrative_area_level_2_short_name: '27',
    country: FR, extra_info: null, lat: '48.85502', lng: '1.05853', locality: Damville,
    postal_code: '27240', route: null, street_number: null}
  model: events.location
  pk: 239
- fields: {administrative_area_level_1: Nord-Pas-de-Calais, administrative_area_level_1_short_name: Nord-Pas-de-Calais,
    administrative_area_level_2: Nord, administrative_area_level_2_short_name: '59',
    country: FR, extra_info: null, lat: '50.64642', lng: '2.98539', locality: Capinghem,
    postal_code: '59160', route: null, street_number: null}
  model: events.location
  pk: 240
- fields: {administrative_area_level_1: Nord-Pas-de-Calais, administrative_area_level_1_short_name: Nord-Pas-de-Calais,
    administrative_area_level_2: Nord, administrative_area_level_2_short_name: '59',
    country: FR, extra_info: null, lat: '50.64642', lng: '2.98539', locality: Capinghem,
    postal_code: '59160', route: null, street_number: null}
  model: events.location
  pk: 241
- fields: {administrative_area_level_1: Aquitaine, administrative_area_level_1_short_name: Aquitaine,
    administrative_area_level_2: Dordogne, administrative_area_level_2_short_name: '24',
    country: FR, extra_info: null, lat: '44.86814', lng: '0.50688', locality: Bergerac,
    postal_code: '24100', route: null, street_number: null}
  model: events.location
  pk: 242
- fields: {administrative_area_level_1: "Rh\xF4ne-Alpes", administrative_area_level_1_short_name: RA,
    administrative_area_level_2: Haute-Savoie, administrative_area_level_2_short_name: '74',
    country: FR, extra_info: null, lat: '46.39524', lng: '6.54166', locality: Publier,
    postal_code: '74500', route: Avenue de la Rive, street_number: '1099'}
  model: events.location
  pk: 243
- fields: {administrative_area_level_1: '', administrative_area_level_1_short_name: '',
    administrative_area_level_2: "Finist\xE8re", administrative_area_level_2_short_name: '29',
    country: FR, extra_info: null, lat: '48.66905', lng: '-3.90747', locality: Carantec,
    postal_code: '29660', route: Plage du Kelenn, street_number: null}
  model: events.location
  pk: 244
- fields: {administrative_area_level_1: '', administrative_area_level_1_short_name: '',
    administrative_area_level_2: "Finist\xE8re", administrative_area_level_2_short_name: '29',
    country: FR, extra_info: null, lat: '48.66905', lng: '-3.90747', locality: Carantec,
    postal_code: '29660', route: Plage du Kelenn, street_number: null}
  model: events.location
  pk: 245
- fields: {administrative_area_level_1: "\xCEle-de-France", administrative_area_level_1_short_name: IDF,
    administrative_area_level_2: Val-d'Oise, administrative_area_level_2_short_name: '95',
    country: FR, extra_info: null, lat: '48.92683', lng: '2.21246', locality: Bezons,
    postal_code: '95870', route: null, street_number: null}
  model: events.location
  pk: 246
- fields: {administrative_area_level_1: Lorraine, administrative_area_level_1_short_name: Lorraine,
    administrative_area_level_2: Vosges, administrative_area_level_2_short_name: '88',
    country: FR, extra_info: null, lat: '48.19317', lng: '5.93767', locality: Vittel,
    postal_code: '88800', route: null, street_number: null}
  model: events.location
  pk: 247
- fields: {administrative_area_level_1: Haute-Normandie, administrative_area_level_1_short_name: Haute-Normandie,
    administrative_area_level_2: Seine-Maritime, administrative_area_level_2_short_name: '76',
    country: FR, extra_info: null, lat: '49.54834', lng: '1.09035', locality: Montville,
    postal_code: '76710', route: null, street_number: null}
  model: events.location
  pk: 248
- fields: {administrative_area_level_1: Rhone-Alpes, administrative_area_level_1_short_name: Rhone-Alpes,
    administrative_area_level_2: Ain, administrative_area_level_2_short_name: '01',
    country: FR, extra_info: null, lat: '46.26131', lng: '5.63025', locality: OYONNAX,
    postal_code: '01100', route: 'Centre nautique Robert Sautin, 148 cours de Verdun',
    street_number: null}
  model: events.location
  pk: 249
- fields: {administrative_area_level_1: Rhone-Alpes, administrative_area_level_1_short_name: Rhone-Alpes,
    administrative_area_level_2: Ain, administrative_area_level_2_short_name: '01',
    country: FR, extra_info: null, lat: '46.26131', lng: '5.63025', locality: OYONNAX,
    postal_code: '01100', route: 'Centre nautique Robert Sautin, 148 cours de Verdun',
    street_number: null}
  model: events.location
  pk: 250
- fields: {administrative_area_level_1: Bretagne, administrative_area_level_1_short_name: Bretagne,
    administrative_area_level_2: Ille-et-Vilaine, administrative_area_level_2_short_name: '35',
    country: FR, extra_info: null, lat: '48.12517', lng: '-1.58765', locality: "Cesson-S\xE9\
      vign\xE9", postal_code: '35510', route: "Boulevard de D\xE9zerseul", street_number: null}
  model: events.location
  pk: 252
- fields: {administrative_area_level_1: "\xCEle-de-France", administrative_area_level_1_short_name: IDF,
    administrative_area_level_2: Essonne, administrative_area_level_2_short_name: '91',
    country: FR, extra_info: null, lat: '48.59759', lng: '2.46264', locality: Corbeil-Essonnes,
    postal_code: '91100', route: null, street_number: null}
  model: events.location
  pk: 254
- fields: {administrative_area_level_1: Haute-Normandie, administrative_area_level_1_short_name: Haute-Normandie,
    administrative_area_level_2: Seine-Maritime, administrative_area_level_2_short_name: '76',
    country: FR, extra_info: null, lat: '49.92642', lng: '1.09369', locality: Dieppe,
    postal_code: '76200', route: null, street_number: null}
  model: events.location
  pk: 255
- fields: {administrative_area_level_1: Haute-Normandie, administrative_area_level_1_short_name: Haute-Normandie,
    administrative_area_level_2: Seine-Maritime, administrative_area_level_2_short_name: '76',
    country: FR, extra_info: null, lat: '49.92642', lng: '1.09369', locality: Dieppe,
    postal_code: '76200', route: null, street_number: null}
  model: events.location
  pk: 256
- fields: {administrative_area_level_1: Rhone-Alpes, administrative_area_level_1_short_name: RA,
    administrative_area_level_2: Isere, administrative_area_level_2_short_name: '38',
    country: FR, extra_info: null, lat: '45.17746', lng: '5.76787', locality: "Saint-Martin-d'H\xE8\
      res", postal_code: '38400', route: null, street_number: null}
  model: events.location
  pk: 257
- fields: {administrative_area_level_1: Rhone-Alpes, administrative_area_level_1_short_name: RA,
    administrative_area_level_2: Isere, administrative_area_level_2_short_name: '38',
    country: FR, extra_info: null, lat: '45.17746', lng: '5.76787', locality: "Saint-Martin-d'H\xE8\
      res", postal_code: '38400', route: null, street_number: null}
  model: events.location
  pk: 258
- fields: {administrative_area_level_1: Rhone-Alpes, administrative_area_level_1_short_name: RA,
    administrative_area_level_2: Isere, administrative_area_level_2_short_name: '38',
    country: FR, extra_info: null, lat: '45.17746', lng: '5.76787', locality: "Saint-Martin-d'H\xE8\
      res", postal_code: '38400', route: null, street_number: null}
  model: events.location
  pk: 259
- fields: {administrative_area_level_1: Languedoc-Roussillon, administrative_area_level_1_short_name: Languedoc-Roussillon,
    administrative_area_level_2: "H\xE9rault", administrative_area_level_2_short_name: '34',
    country: FR, extra_info: null, lat: '43.69873', lng: '4.08999', locality: Lunel,
    postal_code: '34400', route: null, street_number: null}
  model: events.location
  pk: 260
- fields: {administrative_area_level_1: Nord-Pas-de-Calais, administrative_area_level_1_short_name: Nord-Pas-de-Calais,
    administrative_area_level_2: Nord, administrative_area_level_2_short_name: '59',
    country: FR, extra_info: null, lat: '50.61381', lng: '3.04236', locality: Lille,
    postal_code: '59000', route: null, street_number: null}
  model: events.location
  pk: 261
- fields: {administrative_area_level_1: Nord-Pas-de-Calais, administrative_area_level_1_short_name: Nord-Pas-de-Calais,
    administrative_area_level_2: Nord, administrative_area_level_2_short_name: '59',
    country: FR, extra_info: null, lat: '50.61381', lng: '3.04236', locality: Lille,
    postal_code: '59000', route: null, street_number: null}
  model: events.location
  pk: 262
- fields: {administrative_area_level_1: Nord-Pas-de-Calais, administrative_area_level_1_short_name: Nord-Pas-de-Calais,
    administrative_area_level_2: Nord, administrative_area_level_2_short_name: '59',
    country: FR, extra_info: null, lat: '50.61381', lng: '3.04236', locality: Lille,
    postal_code: '59000', route: null, street_number: null}
  model: events.location
  pk: 263
- fields: {administrative_area_level_1: Alsace, administrative_area_level_1_short_name: Alsace,
    administrative_area_level_2: Haut-Rhin, administrative_area_level_2_short_name: '68',
    country: FR, extra_info: null, lat: '47.72411', lng: '7.22726', locality: Heimsbrunn,
    postal_code: '68990', route: null, street_number: null}
  model: events.location
  pk: 264
- fields: {administrative_area_level_1: "\xCEle-de-France", administrative_area_level_1_short_name: IDF,
    administrative_area_level_2: Paris, administrative_area_level_2_short_name: '75',
    country: FR, extra_info: null, lat: '48.82936', lng: '2.42654', locality: Paris,
    postal_code: '75012', route: null, street_number: null}
  model: events.location
  pk: 265
- fields: {administrative_area_level_1: Rhone-Alpes, administrative_area_level_1_short_name: RA,
    administrative_area_level_2: "Rh\xF4ne", administrative_area_level_2_short_name: '69',
    country: FR, extra_info: null, lat: '45.82296', lng: '4.89868', locality: Rillieux-la-Pape,
    postal_code: '69140', route: null, street_number: null}
  model: events.location
  pk: 266
- fields: {administrative_area_level_1: Rhone-Alpes, administrative_area_level_1_short_name: RA,
    administrative_area_level_2: "Rh\xF4ne", administrative_area_level_2_short_name: '69',
    country: FR, extra_info: null, lat: '45.82296', lng: '4.89868', locality: Rillieux-la-Pape,
    postal_code: '69140', route: null, street_number: null}
  model: events.location
  pk: 267
- fields: {administrative_area_level_1: Aquitaine, administrative_area_level_1_short_name: Aquitaine,
    administrative_area_level_2: "Pyr\xE9n\xE9es-Atlantiques", administrative_area_level_2_short_name: '64',
    country: FR, extra_info: null, lat: '43.33791', lng: '-1.57900', locality: "Saint-P\xE9\
      e-sur-Nivelle", postal_code: '64310', route: null, street_number: null}
  model: events.location
  pk: 268
- fields: {administrative_area_level_1: Aquitaine, administrative_area_level_1_short_name: Aquitaine,
    administrative_area_level_2: "Pyr\xE9n\xE9es-Atlantiques", administrative_area_level_2_short_name: '64',
    country: FR, extra_info: null, lat: '43.33791', lng: '-1.57900', locality: "Saint-P\xE9\
      e-sur-Nivelle", postal_code: '64310', route: null, street_number: null}
  model: events.location
  pk: 269
- fields: {administrative_area_level_1: Champagne-Ardenne, administrative_area_level_1_short_name: Champagne-Ardenne,
    administrative_area_level_2: Ardennes, administrative_area_level_2_short_name: 08,
    country: FR, extra_info: null, lat: '49.73881', lng: '4.95309', locality: Sedan,
    postal_code: 08200, route: null, street_number: null}
  model: events.location
  pk: 270
- fields: {administrative_area_level_1: Champagne-Ardenne, administrative_area_level_1_short_name: Champagne-Ardenne,
    administrative_area_level_2: Ardennes, administrative_area_level_2_short_name: 08,
    country: FR, extra_info: null, lat: '49.73881', lng: '4.95309', locality: Sedan,
    postal_code: 08200, route: null, street_number: null}
  model: events.location
  pk: 271
- fields: {administrative_area_level_1: Champagne-Ardenne, administrative_area_level_1_short_name: Champagne-Ardenne,
    administrative_area_level_2: Ardennes, administrative_area_level_2_short_name: 08,
    country: FR, extra_info: null, lat: '49.73881', lng: '4.95309', locality: Sedan,
    postal_code: 08200, route: null, street_number: null}
  model: events.location
  pk: 272
- fields: {administrative_area_level_1: Lorraine, administrative_area_level_1_short_name: Lorraine,
    administrative_area_level_2: Vosges, administrative_area_level_2_short_name: '88',
    country: FR, extra_info: null, lat: '48.24983', lng: '6.41903', locality: Thaon-les-Vosges,
    postal_code: '88150', route: null, street_number: null}
  model: events.location
  pk: 273
- fields: {administrative_area_level_1: Lorraine, administrative_area_level_1_short_name: Lorraine,
    administrative_area_level_2: Vosges, administrative_area_level_2_short_name: '88',
    country: FR, extra_info: null, lat: '48.24983', lng: '6.41903', locality: Thaon-les-Vosges,
    postal_code: '88150', route: null, street_number: null}
  model: events.location
  pk: 274
- fields: {administrative_area_level_1: Lorraine, administrative_area_level_1_short_name: Lorraine,
    administrative_area_level_2: Vosges, administrative_area_level_2_short_name: '88',
    country: FR, extra_info: null, lat: '48.24983', lng: '6.41903', locality: Thaon-les-Vosges,
    postal_code: '88150', route: null, street_number: null}
  model: events.location
  pk: 275
- fields: {administrative_area_level_1: Nord-Pas-de-Calais, administrative_area_level_1_short_name: Nord-Pas-de-Calais,
    administrative_area_level_2: Nord, administrative_area_level_2_short_name: '59',
    country: FR, extra_info: null, lat: '50.67635', lng: '3.13104', locality: Wasquehal,
    postal_code: '59290', route: null, street_number: null}
  model: events.location
  pk: 277
- fields: {administrative_area_level_1: Nord-Pas-de-Calais, administrative_area_level_1_short_name: Nord-Pas-de-Calais,
    administrative_area_level_2: Nord, administrative_area_level_2_short_name: '59',
    country: FR, extra_info: null, lat: '50.67635', lng: '3.13104', locality: Wasquehal,
    postal_code: '59290', route: null, street_number: null}
  model: events.location
  pk: 278
- fields: {administrative_area_level_1: Pays de la Loire, administrative_area_level_1_short_name: Pays
      de la Loire, administrative_area_level_2: Vendee, administrative_area_level_2_short_name: '85',
    country: FR, extra_info: null, lat: '46.45668', lng: '-0.65283', locality: Saint-Hilaire-des-Loges,
    postal_code: '85240', route: null, street_number: null}
  model: events.location
  pk: 279
- fields: {administrative_area_level_1: Pays de la Loire, administrative_area_level_1_short_name: Pays
      de la Loire, administrative_area_level_2: Vendee, administrative_area_level_2_short_name: '85',
    country: FR, extra_info: null, lat: '46.45668', lng: '-0.65283', locality: Saint-Hilaire-des-Loges,
    postal_code: '85240', route: null, street_number: null}
  model: events.location
  pk: 280
- fields: {administrative_area_level_1: Nord-Pas-de-Calais, administrative_area_level_1_short_name: Nord-Pas-de-Calais,
    administrative_area_level_2: Nord, administrative_area_level_2_short_name: '59',
    country: FR, extra_info: null, lat: '50.13737', lng: '3.93360', locality: Avesnes-sur-Helpe,
    postal_code: '59440', route: null, street_number: null}
  model: events.location
  pk: 281
- fields: {administrative_area_level_1: Nord-Pas-de-Calais, administrative_area_level_1_short_name: Nord-Pas-de-Calais,
    administrative_area_level_2: Nord, administrative_area_level_2_short_name: '59',
    country: FR, extra_info: null, lat: '50.13737', lng: '3.93360', locality: Avesnes-sur-Helpe,
    postal_code: '59440', route: null, street_number: null}
  model: events.location
  pk: 282
- fields: {administrative_area_level_1: "Provence-Alpes-C\xF4te d'Azur", administrative_area_level_1_short_name: PACA,
    administrative_area_level_2: "Bouches-du-Rh\xF4ne", administrative_area_level_2_short_name: '13',
    country: FR, extra_info: null, lat: '43.19467', lng: '5.61368', locality: La Ciotat,
    postal_code: '13600', route: Avenue Guillaume Dulac, street_number: null}
  model: events.location
  pk: 283
- fields: {administrative_area_level_1: "Provence-Alpes-C\xF4te d'Azur", administrative_area_level_1_short_name: PACA,
    administrative_area_level_2: "Bouches-du-Rh\xF4ne", administrative_area_level_2_short_name: '13',
    country: FR, extra_info: null, lat: '43.19467', lng: '5.61368', locality: La Ciotat,
    postal_code: '13600', route: Avenue Guillaume Dulac, street_number: null}
  model: events.location
  pk: 284
- fields: {administrative_area_level_1: Alsace, administrative_area_level_1_short_name: Alsace,
    administrative_area_level_2: Bas-Rhin, administrative_area_level_2_short_name: '67',
    country: FR, extra_info: null, lat: '48.60199', lng: '7.78352', locality: Strasbourg,
    postal_code: '67000', route: null, street_number: null}
  model: events.location
  pk: 285
- fields: {administrative_area_level_1: Alsace, administrative_area_level_1_short_name: Alsace,
    administrative_area_level_2: Bas-Rhin, administrative_area_level_2_short_name: '67',
    country: FR, extra_info: null, lat: '48.60199', lng: '7.78352', locality: Strasbourg,
    postal_code: '67000', route: null, street_number: null}
  model: events.location
  pk: 286
- fields: {administrative_area_level_1: Rhone-Alpes, administrative_area_level_1_short_name: RA,
    administrative_area_level_2: Savoie, administrative_area_level_2_short_name: '73',
    country: FR, extra_info: null, lat: '45.70140', lng: '5.95693', locality: "Gr\xE9\
      sy-sur-Aix", postal_code: '73100', route: null, street_number: null}
  model: events.location
  pk: 288
- fields: {administrative_area_level_1: Rhone-Alpes, administrative_area_level_1_short_name: RA,
    administrative_area_level_2: Savoie, administrative_area_level_2_short_name: '73',
    country: FR, extra_info: null, lat: '45.70140', lng: '5.95693', locality: "Gr\xE9\
      sy-sur-Aix", postal_code: '73100', route: null, street_number: null}
  model: events.location
  pk: 289
- fields: {administrative_area_level_1: Basse-Normandie, administrative_area_level_1_short_name: Basse-Normandie,
    administrative_area_level_2: Manche, administrative_area_level_2_short_name: '50',
    country: FR, extra_info: null, lat: '49.05280', lng: '-1.41952', locality: Coutances,
    postal_code: '50200', route: null, street_number: null}
  model: events.location
  pk: 290
- fields: {administrative_area_level_1: Rhone-Alpes, administrative_area_level_1_short_name: RA,
    administrative_area_level_2: Loire, administrative_area_level_2_short_name: '42',
    country: FR, extra_info: null, lat: '45.43026', lng: '4.42489', locality: "Saint-\xC9\
      tienne", postal_code: '42100', route: null, street_number: null}
  model: events.location
  pk: 291
- fields: {administrative_area_level_1: '', administrative_area_level_1_short_name: '',
    administrative_area_level_2: '', administrative_area_level_2_short_name: '972',
    country: MQ, extra_info: null, lat: '14.60000', lng: '-61.08334', locality: SCHOELCHER,
    postal_code: '97233', route: PLAGE DU BOURG, street_number: null}
  model: events.location
  pk: 292
- fields: {administrative_area_level_1: '', administrative_area_level_1_short_name: '',
    administrative_area_level_2: '', administrative_area_level_2_short_name: '972',
    country: MQ, extra_info: null, lat: '14.60000', lng: '-61.08334', locality: SCHOELCHER,
    postal_code: '97233', route: PLAGE DU BOURG, street_number: null}
  model: events.location
  pk: 294
- fields: {administrative_area_level_1: '', administrative_area_level_1_short_name: '',
    administrative_area_level_2: '', administrative_area_level_2_short_name: '974',
    country: RE, extra_info: null, lat: '-20.87994', lng: '55.45134', locality: ST
      DENIS, postal_code: '97400', route: PISCINE DU CHAUDRON, street_number: null}
  model: events.location
  pk: 296
- fields: {administrative_area_level_1: Haute-Normandie, administrative_area_level_1_short_name: Haute-Normandie,
    administrative_area_level_2: Seine-Maritime, administrative_area_level_2_short_name: '76',
    country: FR, extra_info: null, lat: '49.80132', lng: '0.63227', locality: Vittefleur,
    postal_code: '76450', route: Rue du Dessous des Bois, street_number: null}
  model: events.location
  pk: 297
- fields: {administrative_area_level_1: Haute-Normandie, administrative_area_level_1_short_name: Haute-Normandie,
    administrative_area_level_2: Seine-Maritime, administrative_area_level_2_short_name: '76',
    country: FR, extra_info: null, lat: '49.80132', lng: '0.63227', locality: Vittefleur,
    postal_code: '76450', route: Rue du Dessous des Bois, street_number: null}
  model: events.location
  pk: 298
- fields: {administrative_area_level_1: "Midi-Pyr\xE9n\xE9es", administrative_area_level_1_short_name: "Midi-Pyr\xE9\
      n\xE9es", administrative_area_level_2: Aveyron, administrative_area_level_2_short_name: '12',
    country: FR, extra_info: null, lat: '44.27874', lng: '2.44064', locality: Baraqueville,
    postal_code: '12160', route: null, street_number: null}
  model: events.location
  pk: 299
- fields: {administrative_area_level_1: "Midi-Pyr\xE9n\xE9es", administrative_area_level_1_short_name: "Midi-Pyr\xE9\
      n\xE9es", administrative_area_level_2: Aveyron, administrative_area_level_2_short_name: '12',
    country: FR, extra_info: null, lat: '44.27874', lng: '2.44064', locality: Baraqueville,
    postal_code: '12160', route: null, street_number: null}
  model: events.location
  pk: 300
- fields: {administrative_area_level_1: "Midi-Pyr\xE9n\xE9es", administrative_area_level_1_short_name: "Midi-Pyr\xE9\
      n\xE9es", administrative_area_level_2: Aveyron, administrative_area_level_2_short_name: '12',
    country: FR, extra_info: null, lat: '44.27874', lng: '2.44064', locality: Baraqueville,
    postal_code: '12160', route: null, street_number: null}
  model: events.location
  pk: 301
- fields: {administrative_area_level_1: Languedoc-Roussillon, administrative_area_level_1_short_name: Languedoc-Roussillon,
    administrative_area_level_2: "H\xE9rault", administrative_area_level_2_short_name: '34',
    country: FR, extra_info: null, lat: '43.41285', lng: '3.69651', locality: "S\xE8\
      te", postal_code: '34200', route: null, street_number: null}
  model: events.location
  pk: 302
- fields: {administrative_area_level_1: Corse, administrative_area_level_1_short_name: Corse,
    administrative_area_level_2: Haute-Corse, administrative_area_level_2_short_name: '20',
    country: FR, extra_info: null, lat: '42.73250', lng: '9.44714', locality: San-Martino-di-Lota,
    postal_code: '20200', route: Route de San Martino, street_number: null}
  model: events.location
  pk: 303
- fields: {administrative_area_level_1: "Provence-Alpes-C\xF4te d'Azur", administrative_area_level_1_short_name: PACA,
    administrative_area_level_2: Hautes-Alpes, administrative_area_level_2_short_name: '05',
    country: FR, extra_info: null, lat: '44.53139', lng: '6.55699', locality: Embrun,
    postal_code: '05200', route: null, street_number: null}
  model: events.location
  pk: 304
- fields: {administrative_area_level_1: Alsace, administrative_area_level_1_short_name: Alsace,
    administrative_area_level_2: Bas-Rhin, administrative_area_level_2_short_name: '67',
    country: FR, extra_info: null, lat: '48.58632', lng: '7.71706', locality: Strasbourg,
    postal_code: '67200', route: null, street_number: null}
  model: events.location
  pk: 305
- fields: {administrative_area_level_1: "Provence-Alpes-C\xF4te d'Azur", administrative_area_level_1_short_name: PACA,
    administrative_area_level_2: "Bouches-du-Rh\xF4ne", administrative_area_level_2_short_name: '13',
    country: FR, extra_info: null, lat: '43.21299', lng: '5.53117', locality: Cassis,
    postal_code: '13260', route: null, street_number: null}
