[{"model": "events.location", "pk": 9212, "fields": {"lat": "43.65813", "postal_code": "06700", "administrative_area_level_1_short_name": "PACA", "street_number": null, "lng": "7.19272", "locality": "Saint-Laurent-du-Var", "country": "FR", "administrative_area_level_2_short_name": "06", "extra_info": null, "administrative_area_level_1": "Provence-Alpes-C\u00f4te d'Azur", "route": "Espl. des Go\u00e9lands", "administrative_area_level_2": "Alpes-Maritimes"}}, {"model": "events.location", "pk": 9213, "fields": {"lat": "43.65813", "postal_code": "06700", "administrative_area_level_1_short_name": "PACA", "street_number": null, "lng": "7.19272", "locality": "Saint-Laurent-du-Var", "country": "FR", "administrative_area_level_2_short_name": "06", "extra_info": null, "administrative_area_level_1": "Provence-Alpes-C\u00f4te d'Azur", "route": "Espl. des Go\u00e9lands", "administrative_area_level_2": "Alpes-Maritimes"}}, {"model": "events.location", "pk": 9217, "fields": {"lat": "43.12660", "postal_code": "83980", "administrative_area_level_1_short_name": "PACA", "street_number": null, "lng": "6.36251", "locality": "Le Lavandou", "country": "FR", "administrative_area_level_2_short_name": "83", "extra_info": null, "administrative_area_level_1": "Provence-Alpes-C\u00f4te d'Azur", "route": "Boulevard du Front de Mer", "administrative_area_level_2": "Var"}}, {"model": "events.location", "pk": 9218, "fields": {"lat": "43.12660", "postal_code": "83980", "administrative_area_level_1_short_name": "PACA", "street_number": null, "lng": "6.36251", "locality": "Le Lavandou", "country": "FR", "administrative_area_level_2_short_name": "83", "extra_info": null, "administrative_area_level_1": "Provence-Alpes-C\u00f4te d'Azur", "route": "Boulevard du Front de Mer", "administrative_area_level_2": "Var"}}, {"model": "events.location", "pk": 9226, "fields": {"lat": "43.59902", "postal_code": "06600", "administrative_area_level_1_short_name": "PACA", "street_number": null, "lng": "7.10364", "locality": "Antibes", "country": "FR", "administrative_area_level_2_short_name": "06", "extra_info": null, "administrative_area_level_1": "Provence-Alpes-C\u00f4te d'Azur", "route": "PLAGE DE LA SALIS", "administrative_area_level_2": "Alpes-Maritimes"}}, {"model": "events.location", "pk": 9227, "fields": {"lat": "43.59902", "postal_code": "06600", "administrative_area_level_1_short_name": "PACA", "street_number": null, "lng": "7.10364", "locality": "Antibes", "country": "FR", "administrative_area_level_2_short_name": "06", "extra_info": null, "administrative_area_level_1": "Provence-Alpes-C\u00f4te d'Azur", "route": "PLAGE DE LA SALIS", "administrative_area_level_2": "Alpes-Maritimes"}}, {"model": "events.location", "pk": 9228, "fields": {"lat": "43.59902", "postal_code": "06600", "administrative_area_level_1_short_name": "PACA", "street_number": null, "lng": "7.10364", "locality": "Antibes", "country": "FR", "administrative_area_level_2_short_name": "06", "extra_info": null, "administrative_area_level_1": "Provence-Alpes-C\u00f4te d'Azur", "route": "PLAGE DE LA SALIS", "administrative_area_level_2": "Alpes-Maritimes"}}, {"model": "events.location", "pk": 9229, "fields": {"lat": "43.59902", "postal_code": "06600", "administrative_area_level_1_short_name": "PACA", "street_number": null, "lng": "7.10364", "locality": "Antibes", "country": "FR", "administrative_area_level_2_short_name": "06", "extra_info": null, "administrative_area_level_1": "Provence-Alpes-C\u00f4te d'Azur", "route": "PLAGE DE LA SALIS", "administrative_area_level_2": "Alpes-Maritimes"}}, {"model": "events.location", "pk": 9230, "fields": {"lat": "48.06154", "postal_code": "56300", "administrative_area_level_1_short_name": "Brittany", "street_number": null, "lng": "-2.98474", "locality": "Pontivy", "country": "FR", "administrative_area_level_2_short_name": "56", "extra_info": null, "administrative_area_level_1": "Brittany", "route": "PISCINE DECOUVERTE", "administrative_area_level_2": "Morbihan"}}, {"model": "events.location", "pk": 9231, "fields": {"lat": "48.06154", "postal_code": "56300", "administrative_area_level_1_short_name": "Brittany", "street_number": null, "lng": "-2.98474", "locality": "Pontivy", "country": "FR", "administrative_area_level_2_short_name": "56", "extra_info": null, "administrative_area_level_1": "Brittany", "route": "PISCINE DECOUVERTE", "administrative_area_level_2": "Morbihan"}}, {"model": "events.location", "pk": 9232, "fields": {"lat": "49.05999", "postal_code": "57230", "administrative_area_level_1_short_name": "Lorraine", "street_number": null, "lng": "7.51396", "locality": "Bitche", "country": "FR", "administrative_area_level_2_short_name": "57", "extra_info": null, "administrative_area_level_1": "Lorraine", "route": "Piscine intercommunale", "administrative_area_level_2": "Moselle"}}, {"model": "events.location", "pk": 9260, "fields": {"lat": "44.86814", "postal_code": "24100", "administrative_area_level_1_short_name": "Aquitaine", "street_number": null, "lng": "0.50688", "locality": "Bergerac", "country": "FR", "administrative_area_level_2_short_name": "24", "extra_info": null, "administrative_area_level_1": "Aquitaine", "route": "Picquecailloux, piscine municiplale", "administrative_area_level_2": "Dordogne"}}, {"model": "events.location", "pk": 9261, "fields": {"lat": "46.38067", "postal_code": "74500", "administrative_area_level_1_short_name": "RA", "street_number": null, "lng": "6.65433", "locality": "\u00c9vian-les-Bains", "country": "FR", "administrative_area_level_2_short_name": "74", "extra_info": null, "administrative_area_level_1": "Rhone-Alpes", "route": "Haute Savoie", "administrative_area_level_2": "Haute-Savoie"}}, {"model": "events.location", "pk": 9264, "fields": {"lat": "48.92683", "postal_code": "95870", "administrative_area_level_1_short_name": "IDF", "street_number": null, "lng": "2.21246", "locality": "Bezons", "country": "FR", "administrative_area_level_2_short_name": "95", "extra_info": null, "administrative_area_level_1": "\u00cele-de-France", "route": "Piscine", "administrative_area_level_2": "Val-d'Oise"}}, {"model": "events.location", "pk": 9282, "fields": {"lat": "47.72411", "postal_code": "68990", "administrative_area_level_1_short_name": "Alsace", "street_number": null, "lng": "7.22726", "locality": "Heimsbrunn", "country": "FR", "administrative_area_level_2_short_name": "68", "extra_info": null, "administrative_area_level_1": "Alsace", "route": "Piscine de l'Illberg  Bld Stoessel", "administrative_area_level_2": "Haut-Rhin"}}, {"model": "events.location", "pk": 9301, "fields": {"lat": "43.17365", "postal_code": "13600", "administrative_area_level_1_short_name": "PACA", "street_number": null, "lng": "5.60515", "locality": "La Ciotat", "country": "FR", "administrative_area_level_2_short_name": "13", "extra_info": null, "administrative_area_level_1": "Provence-Alpes-C\u00f4te d'Azur", "route": "la ciotat", "administrative_area_level_2": "Bouches-du-Rhone"}}, {"model": "events.location", "pk": 9302, "fields": {"lat": "43.17365", "postal_code": "13600", "administrative_area_level_1_short_name": "PACA", "street_number": null, "lng": "5.60515", "locality": "La Ciotat", "country": "FR", "administrative_area_level_2_short_name": "13", "extra_info": null, "administrative_area_level_1": "Provence-Alpes-C\u00f4te d'Azur", "route": "la ciotat", "administrative_area_level_2": "Bouches-du-Rhone"}}, {"model": "events.location", "pk": 9303, "fields": {"lat": "48.60199", "postal_code": "67000", "administrative_area_level_1_short_name": "Alsace", "street_number": null, "lng": "7.78352", "locality": "Strasbourg", "country": "FR", "administrative_area_level_2_short_name": "67", "extra_info": null, "administrative_area_level_1": "Alsace", "route": "Etang Kleinau / Wacken", "administrative_area_level_2": "Bas-Rhin"}}, {"model": "events.location", "pk": 9304, "fields": {"lat": "48.60199", "postal_code": "67000", "administrative_area_level_1_short_name": "Alsace", "street_number": null, "lng": "7.78352", "locality": "Strasbourg", "country": "FR", "administrative_area_level_2_short_name": "67", "extra_info": null, "administrative_area_level_1": "Alsace", "route": "Etang Kleinau / Wacken", "administrative_area_level_2": "Bas-Rhin"}}, {"model": "events.location", "pk": 9306, "fields": {"lat": "45.70140", "postal_code": "73100", "administrative_area_level_1_short_name": "RA", "street_number": null, "lng": "5.95693", "locality": "Gr\u00e9sy-sur-Aix", "country": "FR", "administrative_area_level_2_short_name": "73", "extra_info": null, "administrative_area_level_1": "Rhone-Alpes", "route": "Plage du Rowing, Bd Jean Charcot", "administrative_area_level_2": "Savoie"}}, {"model": "events.location", "pk": 9307, "fields": {"lat": "45.70140", "postal_code": "73100", "administrative_area_level_1_short_name": "RA", "street_number": null, "lng": "5.95693", "locality": "Gr\u00e9sy-sur-Aix", "country": "FR", "administrative_area_level_2_short_name": "73", "extra_info": null, "administrative_area_level_1": "Rhone-Alpes", "route": "Plage du Rowing, Bd Jean Charcot", "administrative_area_level_2": "Savoie"}}, {"model": "events.location", "pk": 9308, "fields": {"lat": "48.75156", "postal_code": "92160", "administrative_area_level_1_short_name": "IDF", "street_number": null, "lng": "2.29665", "locality": "Antony", "country": "FR", "administrative_area_level_2_short_name": "92", "extra_info": null, "administrative_area_level_1": "\u00cele-de-France", "route": "Piscine Iris / Parc Heller", "administrative_area_level_2": "Hauts-de-Seine"}}, {"model": "events.location", "pk": 9311, "fields": {"lat": "14.62000", "postal_code": "97233", "administrative_area_level_1_short_name": "Fort-de-France", "street_number": null, "lng": "-61.10000", "locality": "Sch\u0153lcher", "country": "MQ", "administrative_area_level_2_short_name": "972", "extra_info": null, "administrative_area_level_1": "Fort-de-France", "route": "PLAGE DU BOURG", "administrative_area_level_2": ""}}, {"model": "events.location", "pk": 9313, "fields": {"lat": "14.62000", "postal_code": "97233", "administrative_area_level_1_short_name": "Fort-de-France", "street_number": null, "lng": "-61.10000", "locality": "Sch\u0153lcher", "country": "MQ", "administrative_area_level_2_short_name": "972", "extra_info": null, "administrative_area_level_1": "Fort-de-France", "route": "PLAGE DU BOURG", "administrative_area_level_2": ""}}, {"model": "events.location", "pk": 9318, "fields": {"lat": "44.27797", "postal_code": "12160", "administrative_area_level_1_short_name": "Midi-Pyr\u00e9n\u00e9es", "street_number": null, "lng": "2.43197", "locality": "Baraqueville", "country": "FR", "administrative_area_level_2_short_name": "12", "extra_info": null, "administrative_area_level_1": "Midi-Pyr\u00e9n\u00e9es", "route": "Baraqueville", "administrative_area_level_2": "Aveyron"}}, {"model": "events.location", "pk": 9319, "fields": {"lat": "44.27797", "postal_code": "12160", "administrative_area_level_1_short_name": "Midi-Pyr\u00e9n\u00e9es", "street_number": null, "lng": "2.43197", "locality": "Baraqueville", "country": "FR", "administrative_area_level_2_short_name": "12", "extra_info": null, "administrative_area_level_1": "Midi-Pyr\u00e9n\u00e9es", "route": "Baraqueville", "administrative_area_level_2": "Aveyron"}}, {"model": "events.location", "pk": 9320, "fields": {"lat": "44.27797", "postal_code": "12160", "administrative_area_level_1_short_name": "Midi-Pyr\u00e9n\u00e9es", "street_number": null, "lng": "2.43197", "locality": "Baraqueville", "country": "FR", "administrative_area_level_2_short_name": "12", "extra_info": null, "administrative_area_level_1": "Midi-Pyr\u00e9n\u00e9es", "route": "Baraqueville", "administrative_area_level_2": "Aveyron"}}, {"model": "events.location", "pk": 9321, "fields": {"lat": "43.40788", "postal_code": "34200", "administrative_area_level_1_short_name": "Languedoc-Roussillon", "street_number": null, "lng": "3.70082", "locality": "S\u00e8te", "country": "FR", "administrative_area_level_2_short_name": "34", "extra_info": null, "administrative_area_level_1": "Languedoc-Roussillon", "route": "SETE", "administrative_area_level_2": "H\u00e9rault"}}, {"model": "events.location", "pk": 9322, "fields": {"lat": "42.73280", "postal_code": "20200", "administrative_area_level_1_short_name": "Corsica", "street_number": null, "lng": "9.42838", "locality": "San-Martino-di-Lota", "country": "FR", "administrative_area_level_2_short_name": "20", "extra_info": null, "administrative_area_level_1": "Corsica", "route": "San Martino Di Lota", "administrative_area_level_2": "Haute-Corse"}}, {"model": "events.location", "pk": 9325, "fields": {"lat": "43.21299", "postal_code": "13260", "administrative_area_level_1_short_name": "PACA", "street_number": null, "lng": "5.53117", "locality": "Cassis", "country": "FR", "administrative_area_level_2_short_name": "13", "extra_info": null, "administrative_area_level_1": "Provence-Alpes-C\u00f4te d'Azur", "route": " plage du bestouan", "administrative_area_level_2": "Bouches-du-Rh\u00f4ne"}}, {"model": "events.location", "pk": 9326, "fields": {"lat": "45.71869", "postal_code": "69600", "administrative_area_level_1_short_name": "RA", "street_number": "44", "lng": "4.81007", "locality": "Oullins", "country": "FR", "administrative_area_level_2_short_name": "69", "extra_info": null, "administrative_area_level_1": "Rh\u00f4ne-Alpes", "route": "Grande Rue", "administrative_area_level_2": "Rh\u00f4ne"}}, {"model": "events.location", "pk": 9335, "fields": {"lat": "45.91446", "postal_code": "69170", "administrative_area_level_1_short_name": "RA", "street_number": null, "lng": "4.40427", "locality": "Tarare", "country": "FR", "administrative_area_level_2_short_name": "69", "extra_info": null, "administrative_area_level_1": "Rhone-Alpes", "route": "Centre nautique Aquaval", "administrative_area_level_2": "Rh\u00f4ne"}}, {"model": "events.location", "pk": 9336, "fields": {"lat": "45.91446", "postal_code": "69170", "administrative_area_level_1_short_name": "RA", "street_number": null, "lng": "4.40427", "locality": "Tarare", "country": "FR", "administrative_area_level_2_short_name": "69", "extra_info": null, "administrative_area_level_1": "Rhone-Alpes", "route": "Centre nautique Aquaval", "administrative_area_level_2": "Rh\u00f4ne"}}, {"model": "events.location", "pk": 9339, "fields": {"lat": "44.49134", "postal_code": "46140", "administrative_area_level_1_short_name": "Midi-Pyr\u00e9n\u00e9es", "street_number": null, "lng": "1.29626", "locality": "Luzech", "country": "FR", "administrative_area_level_2_short_name": "46", "extra_info": null, "administrative_area_level_1": "Midi-Pyr\u00e9n\u00e9es", "route": "Base nautique de Ca\u00efx", "administrative_area_level_2": "Lot"}}, {"model": "events.location", "pk": 9341, "fields": {"lat": "44.49134", "postal_code": "46140", "administrative_area_level_1_short_name": "Midi-Pyr\u00e9n\u00e9es", "street_number": null, "lng": "1.29626", "locality": "Luzech", "country": "FR", "administrative_area_level_2_short_name": "46", "extra_info": null, "administrative_area_level_1": "Midi-Pyr\u00e9n\u00e9es", "route": "Base nautique de Ca\u00efx", "administrative_area_level_2": "Lot"}}, {"model": "events.location", "pk": 9369, "fields": {"lat": "48.59517", "postal_code": "67200", "administrative_area_level_1_short_name": "Alsace", "street_number": null, "lng": "7.69774", "locality": "Strasbourg", "country": "FR", "administrative_area_level_2_short_name": "67", "extra_info": null, "administrative_area_level_1": "Alsace", "route": "Stade et Piscine de Hautepierre", "administrative_area_level_2": "Bas-Rhin"}}, {"model": "events.location", "pk": 9370, "fields": {"lat": "46.32366", "postal_code": "03410", "administrative_area_level_1_short_name": "Auvergne", "street_number": null, "lng": "2.55576", "locality": "Pr\u00e9milhat", "country": "FR", "administrative_area_level_2_short_name": "03", "extra_info": null, "administrative_area_level_1": "Auvergne", "route": "SAULT", "administrative_area_level_2": "Allier"}}, {"model": "events.location", "pk": 9371, "fields": {"lat": "46.32366", "postal_code": "03410", "administrative_area_level_1_short_name": "Auvergne", "street_number": null, "lng": "2.55576", "locality": "Pr\u00e9milhat", "country": "FR", "administrative_area_level_2_short_name": "03", "extra_info": null, "administrative_area_level_1": "Auvergne", "route": "SAULT", "administrative_area_level_2": "Allier"}}, {"model": "events.location", "pk": 9372, "fields": {"lat": "46.32366", "postal_code": "03410", "administrative_area_level_1_short_name": "Auvergne", "street_number": null, "lng": "2.55576", "locality": "Pr\u00e9milhat", "country": "FR", "administrative_area_level_2_short_name": "03", "extra_info": null, "administrative_area_level_1": "Auvergne", "route": "SAULT", "administrative_area_level_2": "Allier"}}, {"model": "events.location", "pk": 9373, "fields": {"lat": "46.32366", "postal_code": "03410", "administrative_area_level_1_short_name": "Auvergne", "street_number": null, "lng": "2.55576", "locality": "Pr\u00e9milhat", "country": "FR", "administrative_area_level_2_short_name": "03", "extra_info": null, "administrative_area_level_1": "Auvergne", "route": "SAULT", "administrative_area_level_2": "Allier"}}, {"model": "events.location", "pk": 9374, "fields": {"lat": "46.32366", "postal_code": "03410", "administrative_area_level_1_short_name": "Auvergne", "street_number": null, "lng": "2.55576", "locality": "Pr\u00e9milhat", "country": "FR", "administrative_area_level_2_short_name": "03", "extra_info": null, "administrative_area_level_1": "Auvergne", "route": "SAULT", "administrative_area_level_2": "Allier"}}, {"model": "events.location", "pk": 9375, "fields": {"lat": "43.69549", "postal_code": "06000", "administrative_area_level_1_short_name": "PACA", "street_number": null, "lng": "7.25854", "locality": "Nice", "country": "FR", "administrative_area_level_2_short_name": "06", "extra_info": null, "administrative_area_level_1": "Provence-Alpes-C\u00f4te d'Azur", "route": "Promenade des Anglais", "administrative_area_level_2": "Alpes-Maritimes"}}, {"model": "events.location", "pk": 9376, "fields": {"lat": "43.69549", "postal_code": "06000", "administrative_area_level_1_short_name": "PACA", "street_number": null, "lng": "7.25854", "locality": "Nice", "country": "FR", "administrative_area_level_2_short_name": "06", "extra_info": null, "administrative_area_level_1": "Provence-Alpes-C\u00f4te d'Azur", "route": "Promenade des Anglais", "administrative_area_level_2": "Alpes-Maritimes"}}, {"model": "events.location", "pk": 9377, "fields": {"lat": "43.69549", "postal_code": "06000", "administrative_area_level_1_short_name": "PACA", "street_number": null, "lng": "7.25854", "locality": "Nice", "country": "FR", "administrative_area_level_2_short_name": "06", "extra_info": null, "administrative_area_level_1": "Provence-Alpes-C\u00f4te d'Azur", "route": "Promenade des Anglais", "administrative_area_level_2": "Alpes-Maritimes"}}, {"model": "events.location", "pk": 9378, "fields": {"lat": "43.69549", "postal_code": "06000", "administrative_area_level_1_short_name": "PACA", "street_number": null, "lng": "7.25854", "locality": "Nice", "country": "FR", "administrative_area_level_2_short_name": "06", "extra_info": null, "administrative_area_level_1": "Provence-Alpes-C\u00f4te d'Azur", "route": "Promenade des Anglais", "administrative_area_level_2": "Alpes-Maritimes"}}, {"model": "events.location", "pk": 9379, "fields": {"lat": "43.10754", "postal_code": "83000", "administrative_area_level_1_short_name": "PACA", "street_number": null, "lng": "5.94337", "locality": "Toulon", "country": "FR", "administrative_area_level_2_short_name": "83", "extra_info": null, "administrative_area_level_1": "Provence-Alpes-C\u00f4te d'Azur", "route": "Plages du Mourillon", "administrative_area_level_2": "Var"}}, {"model": "events.location", "pk": 9380, "fields": {"lat": "43.10754", "postal_code": "83000", "administrative_area_level_1_short_name": "PACA", "street_number": null, "lng": "5.94337", "locality": "Toulon", "country": "FR", "administrative_area_level_2_short_name": "83", "extra_info": null, "administrative_area_level_1": "Provence-Alpes-C\u00f4te d'Azur", "route": "Plages du Mourillon", "administrative_area_level_2": "Var"}}, {"model": "events.location", "pk": 9381, "fields": {"lat": "43.10754", "postal_code": "83000", "administrative_area_level_1_short_name": "PACA", "street_number": null, "lng": "5.94337", "locality": "Toulon", "country": "FR", "administrative_area_level_2_short_name": "83", "extra_info": null, "administrative_area_level_1": "Provence-Alpes-C\u00f4te d'Azur", "route": "Plages du Mourillon", "administrative_area_level_2": "Var"}}, {"model": "events.location", "pk": 9382, "fields": {"lat": "43.10754", "postal_code": "83000", "administrative_area_level_1_short_name": "PACA", "street_number": null, "lng": "5.94337", "locality": "Toulon", "country": "FR", "administrative_area_level_2_short_name": "83", "extra_info": null, "administrative_area_level_1": "Provence-Alpes-C\u00f4te d'Azur", "route": "Plages du Mourillon", "administrative_area_level_2": "Var"}}, {"model": "events.location", "pk": 9383, "fields": {"lat": "45.69481", "postal_code": "16100", "administrative_area_level_1_short_name": "PCh", "street_number": null, "lng": "-0.32620", "locality": "Cognac", "country": "FR", "administrative_area_level_2_short_name": "16", "extra_info": null, "administrative_area_level_1": "Poitou-Charentes", "route": "Piscine d'\u00e9t\u00e9 (bassin de 50m)", "administrative_area_level_2": "Charente"}}, {"model": "events.location", "pk": 9384, "fields": {"lat": "45.69481", "postal_code": "16100", "administrative_area_level_1_short_name": "PCh", "street_number": null, "lng": "-0.32620", "locality": "Cognac", "country": "FR", "administrative_area_level_2_short_name": "16", "extra_info": null, "administrative_area_level_1": "Poitou-Charentes", "route": "Piscine d'\u00e9t\u00e9 (bassin de 50m)", "administrative_area_level_2": "Charente"}}, {"model": "events.location", "pk": 9385, "fields": {"lat": "45.69481", "postal_code": "16100", "administrative_area_level_1_short_name": "PCh", "street_number": null, "lng": "-0.32620", "locality": "Cognac", "country": "FR", "administrative_area_level_2_short_name": "16", "extra_info": null, "administrative_area_level_1": "Poitou-Charentes", "route": "Piscine d'\u00e9t\u00e9 (bassin de 50m)", "administrative_area_level_2": "Charente"}}, {"model": "events.location", "pk": 9386, "fields": {"lat": "47.35358", "postal_code": "37300", "administrative_area_level_1_short_name": "Centre", "street_number": null, "lng": "0.63958", "locality": "Jou\u00e9 les tours", "country": "FR", "administrative_area_level_2_short_name": "37", "extra_info": null, "administrative_area_level_1": "Centre", "route": "Lac des bretonni\u00e8re", "administrative_area_level_2": "Indre-et-Loire"}}, {"model": "events.location", "pk": 9387, "fields": {"lat": "47.35358", "postal_code": "37300", "administrative_area_level_1_short_name": "Centre", "street_number": null, "lng": "0.63958", "locality": "Jou\u00e9 les tours", "country": "FR", "administrative_area_level_2_short_name": "37", "extra_info": null, "administrative_area_level_1": "Centre", "route": "Lac des bretonni\u00e8re", "administrative_area_level_2": "Indre-et-Loire"}}, {"model": "events.location", "pk": 9388, "fields": {"lat": "47.35358", "postal_code": "37300", "administrative_area_level_1_short_name": "Centre", "street_number": null, "lng": "0.63958", "locality": "Jou\u00e9 les tours", "country": "FR", "administrative_area_level_2_short_name": "37", "extra_info": null, "administrative_area_level_1": "Centre", "route": "Lac des bretonni\u00e8re", "administrative_area_level_2": "Indre-et-Loire"}}, {"model": "events.location", "pk": 9389, "fields": {"lat": "47.35358", "postal_code": "37300", "administrative_area_level_1_short_name": "Centre", "street_number": null, "lng": "0.63958", "locality": "Jou\u00e9 les tours", "country": "FR", "administrative_area_level_2_short_name": "37", "extra_info": null, "administrative_area_level_1": "Centre", "route": "Lac des bretonni\u00e8re", "administrative_area_level_2": "Indre-et-Loire"}}, {"model": "events.location", "pk": 9390, "fields": {"lat": "46.70323", "postal_code": "85800", "administrative_area_level_1_short_name": "Pays de la Loire", "street_number": null, "lng": "-1.89335", "locality": "Saint-Gilles-Croix-de-Vie", "country": "FR", "administrative_area_level_2_short_name": "85", "extra_info": null, "administrative_area_level_1": "Pays de la Loire", "route": "LA SOUDINI\u00c8RE (Derri\u00e8re la Piscine)", "administrative_area_level_2": "Vendee"}}, {"model": "events.location", "pk": 9391, "fields": {"lat": "46.70323", "postal_code": "85800", "administrative_area_level_1_short_name": "Pays de la Loire", "street_number": null, "lng": "-1.89335", "locality": "Saint-Gilles-Croix-de-Vie", "country": "FR", "administrative_area_level_2_short_name": "85", "extra_info": null, "administrative_area_level_1": "Pays de la Loire", "route": "LA SOUDINI\u00c8RE (Derri\u00e8re la Piscine)", "administrative_area_level_2": "Vendee"}}, {"model": "events.location", "pk": 9392, "fields": {"lat": "46.70323", "postal_code": "85800", "administrative_area_level_1_short_name": "Pays de la Loire", "street_number": null, "lng": "-1.89335", "locality": "Saint-Gilles-Croix-de-Vie", "country": "FR", "administrative_area_level_2_short_name": "85", "extra_info": null, "administrative_area_level_1": "Pays de la Loire", "route": "LA SOUDINI\u00c8RE (Derri\u00e8re la Piscine)", "administrative_area_level_2": "Vendee"}}, {"model": "events.location", "pk": 9393, "fields": {"lat": "46.70323", "postal_code": "85800", "administrative_area_level_1_short_name": "Pays de la Loire", "street_number": null, "lng": "-1.89335", "locality": "Saint-Gilles-Croix-de-Vie", "country": "FR", "administrative_area_level_2_short_name": "85", "extra_info": null, "administrative_area_level_1": "Pays de la Loire", "route": "LA SOUDINI\u00c8RE (Derri\u00e8re la Piscine)", "administrative_area_level_2": "Vendee"}}, {"model": "events.location", "pk": 9394, "fields": {"lat": "46.70323", "postal_code": "85800", "administrative_area_level_1_short_name": "Pays de la Loire", "street_number": null, "lng": "-1.89335", "locality": "Saint-Gilles-Croix-de-Vie", "country": "FR", "administrative_area_level_2_short_name": "85", "extra_info": null, "administrative_area_level_1": "Pays de la Loire", "route": "LA SOUDINI\u00c8RE (Derri\u00e8re la Piscine)", "administrative_area_level_2": "Vendee"}}, {"model": "events.location", "pk": 9395, "fields": {"lat": "47.62861", "postal_code": "56000", "administrative_area_level_1_short_name": "Bretagne", "street_number": null, "lng": "-2.77861", "locality": "Vannes", "country": "FR", "administrative_area_level_2_short_name": "56", "extra_info": null, "administrative_area_level_1": "Bretagne", "route": "Conleau", "administrative_area_level_2": "Morbihan"}}, {"model": "events.location", "pk": 9396, "fields": {"lat": "47.62861", "postal_code": "56000", "administrative_area_level_1_short_name": "Bretagne", "street_number": null, "lng": "-2.77861", "locality": "Vannes", "country": "FR", "administrative_area_level_2_short_name": "56", "extra_info": null, "administrative_area_level_1": "Bretagne", "route": "Conleau", "administrative_area_level_2": "Morbihan"}}, {"model": "events.location", "pk": 9397, "fields": {"lat": "47.62861", "postal_code": "56000", "administrative_area_level_1_short_name": "Bretagne", "street_number": null, "lng": "-2.77861", "locality": "Vannes", "country": "FR", "administrative_area_level_2_short_name": "56", "extra_info": null, "administrative_area_level_1": "Bretagne", "route": "Conleau", "administrative_area_level_2": "Morbihan"}}, {"model": "events.location", "pk": 9398, "fields": {"lat": "47.62861", "postal_code": "56000", "administrative_area_level_1_short_name": "Bretagne", "street_number": null, "lng": "-2.77861", "locality": "Vannes", "country": "FR", "administrative_area_level_2_short_name": "56", "extra_info": null, "administrative_area_level_1": "Bretagne", "route": "Conleau", "administrative_area_level_2": "Morbihan"}}, {"model": "events.location", "pk": 9399, "fields": {"lat": "47.62861", "postal_code": "56000", "administrative_area_level_1_short_name": "Bretagne", "street_number": null, "lng": "-2.77861", "locality": "Vannes", "country": "FR", "administrative_area_level_2_short_name": "56", "extra_info": null, "administrative_area_level_1": "Bretagne", "route": "Conleau", "administrative_area_level_2": "Morbihan"}}, {"model": "events.location", "pk": 9400, "fields": {"lat": "43.56186", "postal_code": "83300", "administrative_area_level_1_short_name": "PACA", "street_number": null, "lng": "6.43969", "locality": "Draguignan", "country": "FR", "administrative_area_level_2_short_name": "83", "extra_info": null, "administrative_area_level_1": "Provence-Alpes-C\u00f4te d'Azur", "route": "COMPLEXE HENRI GIRAN", "administrative_area_level_2": "Var"}}, {"model": "events.location", "pk": 9401, "fields": {"lat": "43.56186", "postal_code": "83300", "administrative_area_level_1_short_name": "PACA", "street_number": null, "lng": "6.43969", "locality": "Draguignan", "country": "FR", "administrative_area_level_2_short_name": "83", "extra_info": null, "administrative_area_level_1": "Provence-Alpes-C\u00f4te d'Azur", "route": "COMPLEXE HENRI GIRAN", "administrative_area_level_2": "Var"}}, {"model": "events.location", "pk": 9402, "fields": {"lat": "43.56186", "postal_code": "83300", "administrative_area_level_1_short_name": "PACA", "street_number": null, "lng": "6.43969", "locality": "Draguignan", "country": "FR", "administrative_area_level_2_short_name": "83", "extra_info": null, "administrative_area_level_1": "Provence-Alpes-C\u00f4te d'Azur", "route": "COMPLEXE HENRI GIRAN", "administrative_area_level_2": "Var"}}, {"model": "events.location", "pk": 9403, "fields": {"lat": "-21.08552", "postal_code": "97435", "administrative_area_level_1_short_name": "Saint-Paul", "street_number": null, "lng": "55.26460", "locality": "La Saline Les Hauts", "country": "RE", "administrative_area_level_2_short_name": "974", "extra_info": null, "administrative_area_level_1": "Saint-Paul", "route": "LA SALINE LES HAUTS", "administrative_area_level_2": ""}}, {"model": "events.location", "pk": 9404, "fields": {"lat": "-21.08552", "postal_code": "97435", "administrative_area_level_1_short_name": "Saint-Paul", "street_number": null, "lng": "55.26460", "locality": "La Saline Les Hauts", "country": "RE", "administrative_area_level_2_short_name": "974", "extra_info": null, "administrative_area_level_1": "Saint-Paul", "route": "LA SALINE LES HAUTS", "administrative_area_level_2": ""}}, {"model": "events.location", "pk": 9405, "fields": {"lat": "-21.08552", "postal_code": "97435", "administrative_area_level_1_short_name": "Saint-Paul", "street_number": null, "lng": "55.26460", "locality": "La Saline Les Hauts", "country": "RE", "administrative_area_level_2_short_name": "974", "extra_info": null, "administrative_area_level_1": "Saint-Paul", "route": "LA SALINE LES HAUTS", "administrative_area_level_2": ""}}, {"model": "events.location", "pk": 9406, "fields": {"lat": "-21.08552", "postal_code": "97435", "administrative_area_level_1_short_name": "Saint-Paul", "street_number": null, "lng": "55.26460", "locality": "La Saline Les Hauts", "country": "RE", "administrative_area_level_2_short_name": "974", "extra_info": null, "administrative_area_level_1": "Saint-Paul", "route": "LA SALINE LES HAUTS", "administrative_area_level_2": ""}}, {"model": "events.location", "pk": 9407, "fields": {"lat": "-21.08552", "postal_code": "97435", "administrative_area_level_1_short_name": "Saint-Paul", "street_number": null, "lng": "55.26460", "locality": "La Saline Les Hauts", "country": "RE", "administrative_area_level_2_short_name": "974", "extra_info": null, "administrative_area_level_1": "Saint-Paul", "route": "LA SALINE LES HAUTS", "administrative_area_level_2": ""}}, {"model": "events.location", "pk": 9408, "fields": {"lat": "43.65655", "postal_code": "06800", "administrative_area_level_1_short_name": "PACA", "street_number": null, "lng": "7.17738", "locality": "CAGNES SUR MER", "country": "FR", "administrative_area_level_2_short_name": "06", "extra_info": null, "administrative_area_level_1": "Provence-Alpes-C\u00f4te d'Azur", "route": "Route du Bord de Mer", "administrative_area_level_2": "Alpes-Maritimes"}}, {"model": "events.location", "pk": 9409, "fields": {"lat": "43.65655", "postal_code": "06800", "administrative_area_level_1_short_name": "PACA", "street_number": null, "lng": "7.17738", "locality": "CAGNES SUR MER", "country": "FR", "administrative_area_level_2_short_name": "06", "extra_info": null, "administrative_area_level_1": "Provence-Alpes-C\u00f4te d'Azur", "route": "Route du Bord de Mer", "administrative_area_level_2": "Alpes-Maritimes"}}, {"model": "events.location", "pk": 9410, "fields": {"lat": "43.65655", "postal_code": "06800", "administrative_area_level_1_short_name": "PACA", "street_number": null, "lng": "7.17738", "locality": "CAGNES SUR MER", "country": "FR", "administrative_area_level_2_short_name": "06", "extra_info": null, "administrative_area_level_1": "Provence-Alpes-C\u00f4te d'Azur", "route": "Route du Bord de Mer", "administrative_area_level_2": "Alpes-Maritimes"}}, {"model": "events.location", "pk": 9411, "fields": {"lat": "43.65655", "postal_code": "06800", "administrative_area_level_1_short_name": "PACA", "street_number": null, "lng": "7.17738", "locality": "CAGNES SUR MER", "country": "FR", "administrative_area_level_2_short_name": "06", "extra_info": null, "administrative_area_level_1": "Provence-Alpes-C\u00f4te d'Azur", "route": "Route du Bord de Mer", "administrative_area_level_2": "Alpes-Maritimes"}}, {"model": "events.location", "pk": 9412, "fields": {"lat": "43.65655", "postal_code": "06800", "administrative_area_level_1_short_name": "PACA", "street_number": null, "lng": "7.17738", "locality": "CAGNES SUR MER", "country": "FR", "administrative_area_level_2_short_name": "06", "extra_info": null, "administrative_area_level_1": "Provence-Alpes-C\u00f4te d'Azur", "route": "Route du Bord de Mer", "administrative_area_level_2": "Alpes-Maritimes"}}, {"model": "events.location", "pk": 9413, "fields": {"lat": "16.00000", "postal_code": "97100", "administrative_area_level_1_short_name": "Basse-Terre", "street_number": null, "lng": "-61.73333", "locality": "Basse Terre", "country": "GP", "administrative_area_level_2_short_name": "971", "extra_info": null, "administrative_area_level_1": "Basse-Terre", "route": "Piscine ", "administrative_area_level_2": "Saint-Claude"}}, {"model": "events.location", "pk": 9414, "fields": {"lat": "16.27000", "postal_code": "97139", "administrative_area_level_1_short_name": "Grande-Terre", "street_number": null, "lng": "-61.52000", "locality": "Les Abymes", "country": "GP", "administrative_area_level_2_short_name": "971", "extra_info": null, "administrative_area_level_1": "Grande-Terre", "route": "Piscine de Dugazon ", "administrative_area_level_2": "Les Abymes"}}, {"model": "events.location", "pk": 9415, "fields": {"lat": "50.82269", "postal_code": "62250", "administrative_area_level_1_short_name": "Nord-Pas-de-Calais", "street_number": null, "lng": "1.71262", "locality": "Marquise", "country": "FR", "administrative_area_level_2_short_name": "62", "extra_info": null, "administrative_area_level_1": "Nord-Pas-de-Calais", "route": "piscine Capoolco", "administrative_area_level_2": "Pas-de-Calais"}}, {"model": "events.location", "pk": 9416, "fields": {"lat": "50.82269", "postal_code": "62250", "administrative_area_level_1_short_name": "Nord-Pas-de-Calais", "street_number": null, "lng": "1.71262", "locality": "Marquise", "country": "FR", "administrative_area_level_2_short_name": "62", "extra_info": null, "administrative_area_level_1": "Nord-Pas-de-Calais", "route": "piscine Capoolco", "administrative_area_level_2": "Pas-de-Calais"}}, {"model": "events.location", "pk": 9417, "fields": {"lat": "50.82269", "postal_code": "62250", "administrative_area_level_1_short_name": "Nord-Pas-de-Calais", "street_number": null, "lng": "1.71262", "locality": "Marquise", "country": "FR", "administrative_area_level_2_short_name": "62", "extra_info": null, "administrative_area_level_1": "Nord-Pas-de-Calais", "route": "piscine Capoolco", "administrative_area_level_2": "Pas-de-Calais"}}, {"model": "events.location", "pk": 9418, "fields": {"lat": "50.82269", "postal_code": "62250", "administrative_area_level_1_short_name": "Nord-Pas-de-Calais", "street_number": null, "lng": "1.71262", "locality": "Marquise", "country": "FR", "administrative_area_level_2_short_name": "62", "extra_info": null, "administrative_area_level_1": "Nord-Pas-de-Calais", "route": "piscine Capoolco", "administrative_area_level_2": "Pas-de-Calais"}}, {"model": "events.location", "pk": 9423, "fields": {"lat": "43.46160", "postal_code": "83700", "administrative_area_level_1_short_name": "PACA", "street_number": null, "lng": "6.84582", "locality": "Saint-Rapha\u00ebl", "country": "FR", "administrative_area_level_2_short_name": "83", "extra_info": null, "administrative_area_level_1": "Provence-Alpes-C\u00f4te d'Azur", "route": "STADE NAUTIQUE ALAIN CHATEIGNER", "administrative_area_level_2": "Var"}}, {"model": "events.location", "pk": 9424, "fields": {"lat": "43.46160", "postal_code": "83700", "administrative_area_level_1_short_name": "PACA", "street_number": null, "lng": "6.84582", "locality": "Saint-Rapha\u00ebl", "country": "FR", "administrative_area_level_2_short_name": "83", "extra_info": null, "administrative_area_level_1": "Provence-Alpes-C\u00f4te d'Azur", "route": "STADE NAUTIQUE ALAIN CHATEIGNER", "administrative_area_level_2": "Var"}}, {"model": "events.location", "pk": 9425, "fields": {"lat": "43.46160", "postal_code": "83700", "administrative_area_level_1_short_name": "PACA", "street_number": null, "lng": "6.84582", "locality": "Saint-Rapha\u00ebl", "country": "FR", "administrative_area_level_2_short_name": "83", "extra_info": null, "administrative_area_level_1": "Provence-Alpes-C\u00f4te d'Azur", "route": "STADE NAUTIQUE ALAIN CHATEIGNER", "administrative_area_level_2": "Var"}}, {"model": "events.location", "pk": 9426, "fields": {"lat": "43.46160", "postal_code": "83700", "administrative_area_level_1_short_name": "PACA", "street_number": null, "lng": "6.84582", "locality": "Saint-Rapha\u00ebl", "country": "FR", "administrative_area_level_2_short_name": "83", "extra_info": null, "administrative_area_level_1": "Provence-Alpes-C\u00f4te d'Azur", "route": "STADE NAUTIQUE ALAIN CHATEIGNER", "administrative_area_level_2": "Var"}}, {"model": "events.location", "pk": 9427, "fields": {"lat": "50.27362", "postal_code": "62217", "administrative_area_level_1_short_name": "Nord-Pas-de-Calais", "street_number": null, "lng": "2.75812", "locality": "Achicourt", "country": "FR", "administrative_area_level_2_short_name": "62", "extra_info": null, "administrative_area_level_1": "Nord-Pas-de-Calais", "route": "Piscine municipale d'Achicourt", "administrative_area_level_2": "Pas-de-Calais"}}, {"model": "events.location", "pk": 9428, "fields": {"lat": "50.27362", "postal_code": "62217", "administrative_area_level_1_short_name": "Nord-Pas-de-Calais", "street_number": null, "lng": "2.75812", "locality": "Achicourt", "country": "FR", "administrative_area_level_2_short_name": "62", "extra_info": null, "administrative_area_level_1": "Nord-Pas-de-Calais", "route": "Piscine municipale d'Achicourt", "administrative_area_level_2": "Pas-de-Calais"}}, {"model": "events.location", "pk": 9429, "fields": {"lat": "50.27362", "postal_code": "62217", "administrative_area_level_1_short_name": "Nord-Pas-de-Calais", "street_number": null, "lng": "2.75812", "locality": "Achicourt", "country": "FR", "administrative_area_level_2_short_name": "62", "extra_info": null, "administrative_area_level_1": "Nord-Pas-de-Calais", "route": "Piscine municipale d'Achicourt", "administrative_area_level_2": "Pas-de-Calais"}}, {"model": "events.location", "pk": 9430, "fields": {"lat": "50.27362", "postal_code": "62217", "administrative_area_level_1_short_name": "Nord-Pas-de-Calais", "street_number": null, "lng": "2.75812", "locality": "Achicourt", "country": "FR", "administrative_area_level_2_short_name": "62", "extra_info": null, "administrative_area_level_1": "Nord-Pas-de-Calais", "route": "Piscine municipale d'Achicourt", "administrative_area_level_2": "Pas-de-Calais"}}, {"model": "events.location", "pk": 9431, "fields": {"lat": "50.27362", "postal_code": "62217", "administrative_area_level_1_short_name": "Nord-Pas-de-Calais", "street_number": null, "lng": "2.75812", "locality": "Achicourt", "country": "FR", "administrative_area_level_2_short_name": "62", "extra_info": null, "administrative_area_level_1": "Nord-Pas-de-Calais", "route": "Piscine municipale d'Achicourt", "administrative_area_level_2": "Pas-de-Calais"}}, {"model": "events.location", "pk": 9432, "fields": {"lat": "43.15494", "postal_code": "11100", "administrative_area_level_1_short_name": "Languedoc-Roussillon", "street_number": null, "lng": "2.99756", "locality": "Narbonne", "country": "FR", "administrative_area_level_2_short_name": "11", "extra_info": null, "administrative_area_level_1": "Languedoc-Roussillon", "route": "COMPLEXE ESPACE DE LIBERTE", "administrative_area_level_2": "Aude"}}, {"model": "events.location", "pk": 9433, "fields": {"lat": "43.15494", "postal_code": "11100", "administrative_area_level_1_short_name": "Languedoc-Roussillon", "street_number": null, "lng": "2.99756", "locality": "Narbonne", "country": "FR", "administrative_area_level_2_short_name": "11", "extra_info": null, "administrative_area_level_1": "Languedoc-Roussillon", "route": "COMPLEXE ESPACE DE LIBERTE", "administrative_area_level_2": "Aude"}}, {"model": "events.location", "pk": 9434, "fields": {"lat": "43.15494", "postal_code": "11100", "administrative_area_level_1_short_name": "Languedoc-Roussillon", "street_number": null, "lng": "2.99756", "locality": "Narbonne", "country": "FR", "administrative_area_level_2_short_name": "11", "extra_info": null, "administrative_area_level_1": "Languedoc-Roussillon", "route": "COMPLEXE ESPACE DE LIBERTE", "administrative_area_level_2": "Aude"}}, {"model": "events.location", "pk": 9435, "fields": {"lat": "43.15494", "postal_code": "11100", "administrative_area_level_1_short_name": "Languedoc-Roussillon", "street_number": null, "lng": "2.99756", "locality": "Narbonne", "country": "FR", "administrative_area_level_2_short_name": "11", "extra_info": null, "administrative_area_level_1": "Languedoc-Roussillon", "route": "COMPLEXE ESPACE DE LIBERTE", "administrative_area_level_2": "Aude"}}, {"model": "events.location", "pk": 9436, "fields": {"lat": "43.15494", "postal_code": "11100", "administrative_area_level_1_short_name": "Languedoc-Roussillon", "street_number": null, "lng": "2.99756", "locality": "Narbonne", "country": "FR", "administrative_area_level_2_short_name": "11", "extra_info": null, "administrative_area_level_1": "Languedoc-Roussillon", "route": "COMPLEXE ESPACE DE LIBERTE", "administrative_area_level_2": "Aude"}}, {"model": "events.location", "pk": 9437, "fields": {"lat": "49.62761", "postal_code": "76190", "administrative_area_level_1_short_name": "Upper Normandy", "street_number": null, "lng": "0.72975", "locality": "Yvetot", "country": "FR", "administrative_area_level_2_short_name": "76", "extra_info": null, "administrative_area_level_1": "Upper Normandy", "route": "PISCINE ECAUX BULLES", "administrative_area_level_2": "Seine-Maritime"}}, {"model": "events.location", "pk": 9438, "fields": {"lat": "49.62761", "postal_code": "76190", "administrative_area_level_1_short_name": "Upper Normandy", "street_number": null, "lng": "0.72975", "locality": "Yvetot", "country": "FR", "administrative_area_level_2_short_name": "76", "extra_info": null, "administrative_area_level_1": "Upper Normandy", "route": "PISCINE ECAUX BULLES", "administrative_area_level_2": "Seine-Maritime"}}, {"model": "events.location", "pk": 9439, "fields": {"lat": "49.62761", "postal_code": "76190", "administrative_area_level_1_short_name": "Upper Normandy", "street_number": null, "lng": "0.72975", "locality": "Yvetot", "country": "FR", "administrative_area_level_2_short_name": "76", "extra_info": null, "administrative_area_level_1": "Upper Normandy", "route": "PISCINE ECAUX BULLES", "administrative_area_level_2": "Seine-Maritime"}}, {"model": "events.location", "pk": 9440, "fields": {"lat": "49.62761", "postal_code": "76190", "administrative_area_level_1_short_name": "Upper Normandy", "street_number": null, "lng": "0.72975", "locality": "Yvetot", "country": "FR", "administrative_area_level_2_short_name": "76", "extra_info": null, "administrative_area_level_1": "Upper Normandy", "route": "PISCINE ECAUX BULLES", "administrative_area_level_2": "Seine-Maritime"}}, {"model": "events.location", "pk": 9441, "fields": {"lat": "49.62761", "postal_code": "76190", "administrative_area_level_1_short_name": "Upper Normandy", "street_number": null, "lng": "0.72975", "locality": "Yvetot", "country": "FR", "administrative_area_level_2_short_name": "76", "extra_info": null, "administrative_area_level_1": "Upper Normandy", "route": "PISCINE ECAUX BULLES", "administrative_area_level_2": "Seine-Maritime"}}, {"model": "events.location", "pk": 9442, "fields": {"lat": "47.64376", "postal_code": "90000", "administrative_area_level_1_short_name": "Franche-Comt\u00e9", "street_number": null, "lng": "6.84371", "locality": "Belfort", "country": "FR", "administrative_area_level_2_short_name": "90", "extra_info": null, "administrative_area_level_1": "Franche-Comt\u00e9", "route": "stade nautique du parc", "administrative_area_level_2": "Territoire de Belfort"}}, {"model": "events.location", "pk": 9443, "fields": {"lat": "47.64376", "postal_code": "90000", "administrative_area_level_1_short_name": "Franche-Comt\u00e9", "street_number": null, "lng": "6.84371", "locality": "Belfort", "country": "FR", "administrative_area_level_2_short_name": "90", "extra_info": null, "administrative_area_level_1": "Franche-Comt\u00e9", "route": "stade nautique du parc", "administrative_area_level_2": "Territoire de Belfort"}}, {"model": "events.location", "pk": 9444, "fields": {"lat": "47.64376", "postal_code": "90000", "administrative_area_level_1_short_name": "Franche-Comt\u00e9", "street_number": null, "lng": "6.84371", "locality": "Belfort", "country": "FR", "administrative_area_level_2_short_name": "90", "extra_info": null, "administrative_area_level_1": "Franche-Comt\u00e9", "route": "stade nautique du parc", "administrative_area_level_2": "Territoire de Belfort"}}, {"model": "events.location", "pk": 9445, "fields": {"lat": "47.64376", "postal_code": "90000", "administrative_area_level_1_short_name": "Franche-Comt\u00e9", "street_number": null, "lng": "6.84371", "locality": "Belfort", "country": "FR", "administrative_area_level_2_short_name": "90", "extra_info": null, "administrative_area_level_1": "Franche-Comt\u00e9", "route": "stade nautique du parc", "administrative_area_level_2": "Territoire de Belfort"}}, {"model": "events.location", "pk": 9446, "fields": {"lat": "45.71598", "postal_code": "63800", "administrative_area_level_1_short_name": "Auvergne", "street_number": null, "lng": "3.23249", "locality": "Cournon-d'Auvergne", "country": "FR", "administrative_area_level_2_short_name": "63", "extra_info": null, "administrative_area_level_1": "Auvergne", "route": "PISCINE ANDROSACE RUE DE L'ASTRAGALE", "administrative_area_level_2": "Puy-de-Dome"}}, {"model": "events.location", "pk": 9447, "fields": {"lat": "45.71598", "postal_code": "63800", "administrative_area_level_1_short_name": "Auvergne", "street_number": null, "lng": "3.23249", "locality": "Cournon-d'Auvergne", "country": "FR", "administrative_area_level_2_short_name": "63", "extra_info": null, "administrative_area_level_1": "Auvergne", "route": "PISCINE ANDROSACE RUE DE L'ASTRAGALE", "administrative_area_level_2": "Puy-de-Dome"}}, {"model": "events.location", "pk": 9448, "fields": {"lat": "45.71598", "postal_code": "63800", "administrative_area_level_1_short_name": "Auvergne", "street_number": null, "lng": "3.23249", "locality": "Cournon-d'Auvergne", "country": "FR", "administrative_area_level_2_short_name": "63", "extra_info": null, "administrative_area_level_1": "Auvergne", "route": "PISCINE ANDROSACE RUE DE L'ASTRAGALE", "administrative_area_level_2": "Puy-de-Dome"}}, {"model": "events.location", "pk": 9449, "fields": {"lat": "45.71598", "postal_code": "63800", "administrative_area_level_1_short_name": "Auvergne", "street_number": null, "lng": "3.23249", "locality": "Cournon-d'Auvergne", "country": "FR", "administrative_area_level_2_short_name": "63", "extra_info": null, "administrative_area_level_1": "Auvergne", "route": "PISCINE ANDROSACE RUE DE L'ASTRAGALE", "administrative_area_level_2": "Puy-de-Dome"}}, {"model": "events.location", "pk": 9450, "fields": {"lat": "46.85077", "postal_code": "85500", "administrative_area_level_1_short_name": "Pays de la Loire", "street_number": null, "lng": "-1.11354", "locality": "Mesnard-la-Baroti\u00e8re", "country": "FR", "administrative_area_level_2_short_name": "85", "extra_info": null, "administrative_area_level_1": "Pays de la Loire", "route": "LAC DE LA TRICHERIE", "administrative_area_level_2": "Vend\u00e9e"}}, {"model": "events.location", "pk": 9451, "fields": {"lat": "46.85077", "postal_code": "85500", "administrative_area_level_1_short_name": "Pays de la Loire", "street_number": null, "lng": "-1.11354", "locality": "Mesnard-la-Baroti\u00e8re", "country": "FR", "administrative_area_level_2_short_name": "85", "extra_info": null, "administrative_area_level_1": "Pays de la Loire", "route": "LAC DE LA TRICHERIE", "administrative_area_level_2": "Vend\u00e9e"}}, {"model": "events.location", "pk": 9452, "fields": {"lat": "46.85077", "postal_code": "85500", "administrative_area_level_1_short_name": "Pays de la Loire", "street_number": null, "lng": "-1.11354", "locality": "Mesnard-la-Baroti\u00e8re", "country": "FR", "administrative_area_level_2_short_name": "85", "extra_info": null, "administrative_area_level_1": "Pays de la Loire", "route": "LAC DE LA TRICHERIE", "administrative_area_level_2": "Vend\u00e9e"}}, {"model": "events.location", "pk": 9453, "fields": {"lat": "46.85077", "postal_code": "85500", "administrative_area_level_1_short_name": "Pays de la Loire", "street_number": null, "lng": "-1.11354", "locality": "Mesnard-la-Baroti\u00e8re", "country": "FR", "administrative_area_level_2_short_name": "85", "extra_info": null, "administrative_area_level_1": "Pays de la Loire", "route": "LAC DE LA TRICHERIE", "administrative_area_level_2": "Vend\u00e9e"}}, {"model": "events.location", "pk": 9454, "fields": {"lat": "46.85077", "postal_code": "85500", "administrative_area_level_1_short_name": "Pays de la Loire", "street_number": null, "lng": "-1.11354", "locality": "Mesnard-la-Baroti\u00e8re", "country": "FR", "administrative_area_level_2_short_name": "85", "extra_info": null, "administrative_area_level_1": "Pays de la Loire", "route": "LAC DE LA TRICHERIE", "administrative_area_level_2": "Vend\u00e9e"}}, {"model": "events.location", "pk": 9455, "fields": {"lat": "49.46693", "postal_code": "76130", "administrative_area_level_1_short_name": "Upper Normandy", "street_number": null, "lng": "1.08722", "locality": "Mont-Saint-Aignan", "country": "FR", "administrative_area_level_2_short_name": "76", "extra_info": null, "administrative_area_level_1": "Upper Normandy", "route": "CENTRE SPORTIF DES COQUETS", "administrative_area_level_2": "Seine-Maritime"}}, {"model": "events.location", "pk": 9456, "fields": {"lat": "49.46693", "postal_code": "76130", "administrative_area_level_1_short_name": "Upper Normandy", "street_number": null, "lng": "1.08722", "locality": "Mont-Saint-Aignan", "country": "FR", "administrative_area_level_2_short_name": "76", "extra_info": null, "administrative_area_level_1": "Upper Normandy", "route": "CENTRE SPORTIF DES COQUETS", "administrative_area_level_2": "Seine-Maritime"}}, {"model": "events.location", "pk": 9457, "fields": {"lat": "49.46693", "postal_code": "76130", "administrative_area_level_1_short_name": "Upper Normandy", "street_number": null, "lng": "1.08722", "locality": "Mont-Saint-Aignan", "country": "FR", "administrative_area_level_2_short_name": "76", "extra_info": null, "administrative_area_level_1": "Upper Normandy", "route": "CENTRE SPORTIF DES COQUETS", "administrative_area_level_2": "Seine-Maritime"}}, {"model": "events.location", "pk": 9458, "fields": {"lat": "49.46693", "postal_code": "76130", "administrative_area_level_1_short_name": "Upper Normandy", "street_number": null, "lng": "1.08722", "locality": "Mont-Saint-Aignan", "country": "FR", "administrative_area_level_2_short_name": "76", "extra_info": null, "administrative_area_level_1": "Upper Normandy", "route": "CENTRE SPORTIF DES COQUETS", "administrative_area_level_2": "Seine-Maritime"}}, {"model": "events.location", "pk": 9459, "fields": {"lat": "49.46693", "postal_code": "76130", "administrative_area_level_1_short_name": "Upper Normandy", "street_number": null, "lng": "1.08722", "locality": "Mont-Saint-Aignan", "country": "FR", "administrative_area_level_2_short_name": "76", "extra_info": null, "administrative_area_level_1": "Upper Normandy", "route": "CENTRE SPORTIF DES COQUETS", "administrative_area_level_2": "Seine-Maritime"}}, {"model": "events.location", "pk": 9460, "fields": {"lat": "45.69686", "postal_code": "69800", "administrative_area_level_1_short_name": "RA", "street_number": "1", "lng": "4.95709", "locality": "Saint-Priest", "country": "FR", "administrative_area_level_2_short_name": "69", "extra_info": null, "administrative_area_level_1": "Rh\u00f4ne-Alpes", "route": "Av. Pierre Mend\u00e8s-France", "administrative_area_level_2": "Rh\u00f4ne"}}, {"model": "events.location", "pk": 9461, "fields": {"lat": "45.69686", "postal_code": "69800", "administrative_area_level_1_short_name": "RA", "street_number": "1", "lng": "4.95709", "locality": "Saint-Priest", "country": "FR", "administrative_area_level_2_short_name": "69", "extra_info": null, "administrative_area_level_1": "Rh\u00f4ne-Alpes", "route": "Av. Pierre Mend\u00e8s-France", "administrative_area_level_2": "Rh\u00f4ne"}}, {"model": "events.location", "pk": 9462, "fields": {"lat": "45.69686", "postal_code": "69800", "administrative_area_level_1_short_name": "RA", "street_number": "1", "lng": "4.95709", "locality": "Saint-Priest", "country": "FR", "administrative_area_level_2_short_name": "69", "extra_info": null, "administrative_area_level_1": "Rh\u00f4ne-Alpes", "route": "Av. Pierre Mend\u00e8s-France", "administrative_area_level_2": "Rh\u00f4ne"}}, {"model": "events.location", "pk": 9463, "fields": {"lat": "45.69686", "postal_code": "69800", "administrative_area_level_1_short_name": "RA", "street_number": "1", "lng": "4.95709", "locality": "Saint-Priest", "country": "FR", "administrative_area_level_2_short_name": "69", "extra_info": null, "administrative_area_level_1": "Rh\u00f4ne-Alpes", "route": "Av. Pierre Mend\u00e8s-France", "administrative_area_level_2": "Rh\u00f4ne"}}, {"model": "events.location", "pk": 9464, "fields": {"lat": "44.92272", "postal_code": "26000", "administrative_area_level_1_short_name": "RA", "street_number": null, "lng": "4.90871", "locality": "Valence", "country": "FR", "administrative_area_level_2_short_name": "26", "extra_info": null, "administrative_area_level_1": "Rhone-Alpes", "route": "Piscine Plein ciel", "administrative_area_level_2": "Drome"}}, {"model": "events.location", "pk": 9465, "fields": {"lat": "44.92272", "postal_code": "26000", "administrative_area_level_1_short_name": "RA", "street_number": null, "lng": "4.90871", "locality": "Valence", "country": "FR", "administrative_area_level_2_short_name": "26", "extra_info": null, "administrative_area_level_1": "Rhone-Alpes", "route": "Piscine Plein ciel", "administrative_area_level_2": "Drome"}}, {"model": "events.location", "pk": 9466, "fields": {"lat": "44.92272", "postal_code": "26000", "administrative_area_level_1_short_name": "RA", "street_number": null, "lng": "4.90871", "locality": "Valence", "country": "FR", "administrative_area_level_2_short_name": "26", "extra_info": null, "administrative_area_level_1": "Rhone-Alpes", "route": "Piscine Plein ciel", "administrative_area_level_2": "Drome"}}, {"model": "events.location", "pk": 9467, "fields": {"lat": "44.92272", "postal_code": "26000", "administrative_area_level_1_short_name": "RA", "street_number": null, "lng": "4.90871", "locality": "Valence", "country": "FR", "administrative_area_level_2_short_name": "26", "extra_info": null, "administrative_area_level_1": "Rhone-Alpes", "route": "Piscine Plein ciel", "administrative_area_level_2": "Drome"}}, {"model": "events.location", "pk": 9468, "fields": {"lat": "45.77127", "postal_code": "69100", "administrative_area_level_1_short_name": "RA", "street_number": null, "lng": "4.88445", "locality": "Villeurbanne", "country": "FR", "administrative_area_level_2_short_name": "69", "extra_info": null, "administrative_area_level_1": "Rhone-Alpes", "route": "AQUATHLON", "administrative_area_level_2": "Rh\u00f4ne"}}, {"model": "events.location", "pk": 9469, "fields": {"lat": "45.77127", "postal_code": "69100", "administrative_area_level_1_short_name": "RA", "street_number": null, "lng": "4.88445", "locality": "Villeurbanne", "country": "FR", "administrative_area_level_2_short_name": "69", "extra_info": null, "administrative_area_level_1": "Rhone-Alpes", "route": "AQUATHLON", "administrative_area_level_2": "Rh\u00f4ne"}}, {"model": "events.location", "pk": 9470, "fields": {"lat": "45.77127", "postal_code": "69100", "administrative_area_level_1_short_name": "RA", "street_number": null, "lng": "4.88445", "locality": "Villeurbanne", "country": "FR", "administrative_area_level_2_short_name": "69", "extra_info": null, "administrative_area_level_1": "Rhone-Alpes", "route": "AQUATHLON", "administrative_area_level_2": "Rh\u00f4ne"}}, {"model": "events.location", "pk": 9471, "fields": {"lat": "45.77127", "postal_code": "69100", "administrative_area_level_1_short_name": "RA", "street_number": null, "lng": "4.88445", "locality": "Villeurbanne", "country": "FR", "administrative_area_level_2_short_name": "69", "extra_info": null, "administrative_area_level_1": "Rhone-Alpes", "route": "AQUATHLON", "administrative_area_level_2": "Rh\u00f4ne"}}, {"model": "events.location", "pk": 9472, "fields": {"lat": "45.77127", "postal_code": "69100", "administrative_area_level_1_short_name": "RA", "street_number": null, "lng": "4.88445", "locality": "Villeurbanne", "country": "FR", "administrative_area_level_2_short_name": "69", "extra_info": null, "administrative_area_level_1": "Rhone-Alpes", "route": "AQUATHLON", "administrative_area_level_2": "Rh\u00f4ne"}}, {"model": "events.location", "pk": 9473, "fields": {"lat": "45.77127", "postal_code": "69100", "administrative_area_level_1_short_name": "RA", "street_number": null, "lng": "4.88445", "locality": "Villeurbanne", "country": "FR", "administrative_area_level_2_short_name": "69", "extra_info": null, "administrative_area_level_1": "Rhone-Alpes", "route": "AQUATHLON", "administrative_area_level_2": "Rh\u00f4ne"}}, {"model": "events.location", "pk": 9474, "fields": {"lat": "45.39718", "postal_code": "38550", "administrative_area_level_1_short_name": "RA", "street_number": null, "lng": "4.77852", "locality": "Le P\u00e9age-de-Roussillon", "country": "FR", "administrative_area_level_2_short_name": "38", "extra_info": null, "administrative_area_level_1": "Rhone-Alpes", "route": "Centre Aqualone , rue Victor Renelle", "administrative_area_level_2": "Isere"}}, {"model": "events.location", "pk": 9475, "fields": {"lat": "45.39718", "postal_code": "38550", "administrative_area_level_1_short_name": "RA", "street_number": null, "lng": "4.77852", "locality": "Le P\u00e9age-de-Roussillon", "country": "FR", "administrative_area_level_2_short_name": "38", "extra_info": null, "administrative_area_level_1": "Rhone-Alpes", "route": "Centre Aqualone , rue Victor Renelle", "administrative_area_level_2": "Isere"}}, {"model": "events.location", "pk": 9476, "fields": {"lat": "45.39718", "postal_code": "38550", "administrative_area_level_1_short_name": "RA", "street_number": null, "lng": "4.77852", "locality": "Le P\u00e9age-de-Roussillon", "country": "FR", "administrative_area_level_2_short_name": "38", "extra_info": null, "administrative_area_level_1": "Rhone-Alpes", "route": "Centre Aqualone , rue Victor Renelle", "administrative_area_level_2": "Isere"}}, {"model": "events.location", "pk": 9477, "fields": {"lat": "45.39718", "postal_code": "38550", "administrative_area_level_1_short_name": "RA", "street_number": null, "lng": "4.77852", "locality": "Le P\u00e9age-de-Roussillon", "country": "FR", "administrative_area_level_2_short_name": "38", "extra_info": null, "administrative_area_level_1": "Rhone-Alpes", "route": "Centre Aqualone , rue Victor Renelle", "administrative_area_level_2": "Isere"}}, {"model": "events.location", "pk": 9478, "fields": {"lat": "45.84737", "postal_code": "74600", "administrative_area_level_1_short_name": "RA", "street_number": null, "lng": "6.07579", "locality": "Seynod", "country": "FR", "administrative_area_level_2_short_name": "74", "extra_info": null, "administrative_area_level_1": "Rhone-Alpes", "route": "Centre Nautique de Ile Bleue 10 Avenue Jean Clerc", "administrative_area_level_2": "Haute-Savoie"}}, {"model": "events.location", "pk": 9479, "fields": {"lat": "45.84737", "postal_code": "74600", "administrative_area_level_1_short_name": "RA", "street_number": null, "lng": "6.07579", "locality": "Seynod", "country": "FR", "administrative_area_level_2_short_name": "74", "extra_info": null, "administrative_area_level_1": "Rhone-Alpes", "route": "Centre Nautique de Ile Bleue 10 Avenue Jean Clerc", "administrative_area_level_2": "Haute-Savoie"}}, {"model": "events.location", "pk": 9480, "fields": {"lat": "45.84737", "postal_code": "74600", "administrative_area_level_1_short_name": "RA", "street_number": null, "lng": "6.07579", "locality": "Seynod", "country": "FR", "administrative_area_level_2_short_name": "74", "extra_info": null, "administrative_area_level_1": "Rhone-Alpes", "route": "Centre Nautique de Ile Bleue 10 Avenue Jean Clerc", "administrative_area_level_2": "Haute-Savoie"}}, {"model": "events.location", "pk": 9481, "fields": {"lat": "45.84737", "postal_code": "74600", "administrative_area_level_1_short_name": "RA", "street_number": null, "lng": "6.07579", "locality": "Seynod", "country": "FR", "administrative_area_level_2_short_name": "74", "extra_info": null, "administrative_area_level_1": "Rhone-Alpes", "route": "Centre Nautique de Ile Bleue 10 Avenue Jean Clerc", "administrative_area_level_2": "Haute-Savoie"}}, {"model": "events.location", "pk": 9482, "fields": {"lat": "46.58317", "postal_code": "86000", "administrative_area_level_1_short_name": "PCh", "street_number": null, "lng": "0.34642", "locality": "Poitiers", "country": "FR", "administrative_area_level_2_short_name": "86", "extra_info": null, "administrative_area_level_1": "Poitou-Charentes", "route": "Piscine de bellejouanne", "administrative_area_level_2": "Vienne"}}, {"model": "events.location", "pk": 9483, "fields": {"lat": "46.58317", "postal_code": "86000", "administrative_area_level_1_short_name": "PCh", "street_number": null, "lng": "0.34642", "locality": "Poitiers", "country": "FR", "administrative_area_level_2_short_name": "86", "extra_info": null, "administrative_area_level_1": "Poitou-Charentes", "route": "Piscine de bellejouanne", "administrative_area_level_2": "Vienne"}}, {"model": "events.location", "pk": 9484, "fields": {"lat": "46.58317", "postal_code": "86000", "administrative_area_level_1_short_name": "PCh", "street_number": null, "lng": "0.34642", "locality": "Poitiers", "country": "FR", "administrative_area_level_2_short_name": "86", "extra_info": null, "administrative_area_level_1": "Poitou-Charentes", "route": "Piscine de bellejouanne", "administrative_area_level_2": "Vienne"}}, {"model": "events.location", "pk": 9485, "fields": {"lat": "16.20610", "postal_code": "97190", "administrative_area_level_1_short_name": "Grande-Terre", "street_number": null, "lng": "-61.49420", "locality": "Le Gosier", "country": "GP", "administrative_area_level_2_short_name": "971", "extra_info": null, "administrative_area_level_1": "Grande-Terre", "route": "plage de l'Anse Tabarin ", "administrative_area_level_2": "Le Gosier"}}, {"model": "events.location", "pk": 9486, "fields": {"lat": "16.20610", "postal_code": "97190", "administrative_area_level_1_short_name": "Grande-Terre", "street_number": null, "lng": "-61.49420", "locality": "Le Gosier", "country": "GP", "administrative_area_level_2_short_name": "971", "extra_info": null, "administrative_area_level_1": "Grande-Terre", "route": "plage de l'Anse Tabarin ", "administrative_area_level_2": "Le Gosier"}}, {"model": "events.location", "pk": 9487, "fields": {"lat": "16.20610", "postal_code": "97190", "administrative_area_level_1_short_name": "Grande-Terre", "street_number": null, "lng": "-61.49420", "locality": "Le Gosier", "country": "GP", "administrative_area_level_2_short_name": "971", "extra_info": null, "administrative_area_level_1": "Grande-Terre", "route": "plage de l'Anse Tabarin ", "administrative_area_level_2": "Le Gosier"}}, {"model": "events.location", "pk": 9488, "fields": {"lat": "43.09314", "postal_code": "83220", "administrative_area_level_1_short_name": "", "street_number": null, "lng": "6.02450", "locality": "LE PRADET", "country": "FR", "administrative_area_level_2_short_name": "83", "extra_info": null, "administrative_area_level_1": "", "route": "Plage de la Garonne", "administrative_area_level_2": ""}}, {"model": "events.location", "pk": 9489, "fields": {"lat": "43.09314", "postal_code": "83220", "administrative_area_level_1_short_name": "", "street_number": null, "lng": "6.02450", "locality": "LE PRADET", "country": "FR", "administrative_area_level_2_short_name": "83", "extra_info": null, "administrative_area_level_1": "", "route": "Plage de la Garonne", "administrative_area_level_2": ""}}, {"model": "events.location", "pk": 9490, "fields": {"lat": "43.09314", "postal_code": "83220", "administrative_area_level_1_short_name": "", "street_number": null, "lng": "6.02450", "locality": "LE PRADET", "country": "FR", "administrative_area_level_2_short_name": "83", "extra_info": null, "administrative_area_level_1": "", "route": "Plage de la Garonne", "administrative_area_level_2": ""}}, {"model": "events.location", "pk": 9491, "fields": {"lat": "43.09314", "postal_code": "83220", "administrative_area_level_1_short_name": "", "street_number": null, "lng": "6.02450", "locality": "LE PRADET", "country": "FR", "administrative_area_level_2_short_name": "83", "extra_info": null, "administrative_area_level_1": "", "route": "Plage de la Garonne", "administrative_area_level_2": ""}}, {"model": "events.location", "pk": 9492, "fields": {"lat": "43.09314", "postal_code": "83220", "administrative_area_level_1_short_name": "", "street_number": null, "lng": "6.02450", "locality": "LE PRADET", "country": "FR", "administrative_area_level_2_short_name": "83", "extra_info": null, "administrative_area_level_1": "", "route": "Plage de la Garonne", "administrative_area_level_2": ""}}, {"model": "events.location", "pk": 9493, "fields": {"lat": "48.85502", "postal_code": "27240", "administrative_area_level_1_short_name": "Upper Normandy", "street_number": null, "lng": "1.05853", "locality": "Damville", "country": "FR", "administrative_area_level_2_short_name": "27", "extra_info": null, "administrative_area_level_1": "Upper Normandy", "route": "Base de Loisirs ", "administrative_area_level_2": "Eure"}}, {"model": "events.location", "pk": 9494, "fields": {"lat": "48.85502", "postal_code": "27240", "administrative_area_level_1_short_name": "Upper Normandy", "street_number": null, "lng": "1.05853", "locality": "Damville", "country": "FR", "administrative_area_level_2_short_name": "27", "extra_info": null, "administrative_area_level_1": "Upper Normandy", "route": "Base de Loisirs ", "administrative_area_level_2": "Eure"}}, {"model": "events.location", "pk": 9495, "fields": {"lat": "48.85502", "postal_code": "27240", "administrative_area_level_1_short_name": "Upper Normandy", "street_number": null, "lng": "1.05853", "locality": "Damville", "country": "FR", "administrative_area_level_2_short_name": "27", "extra_info": null, "administrative_area_level_1": "Upper Normandy", "route": "Base de Loisirs ", "administrative_area_level_2": "Eure"}}, {"model": "events.location", "pk": 9496, "fields": {"lat": "48.85502", "postal_code": "27240", "administrative_area_level_1_short_name": "Upper Normandy", "street_number": null, "lng": "1.05853", "locality": "Damville", "country": "FR", "administrative_area_level_2_short_name": "27", "extra_info": null, "administrative_area_level_1": "Upper Normandy", "route": "Base de Loisirs ", "administrative_area_level_2": "Eure"}}, {"model": "events.location", "pk": 9497, "fields": {"lat": "48.85502", "postal_code": "27240", "administrative_area_level_1_short_name": "Upper Normandy", "street_number": null, "lng": "1.05853", "locality": "Damville", "country": "FR", "administrative_area_level_2_short_name": "27", "extra_info": null, "administrative_area_level_1": "Upper Normandy", "route": "Base de Loisirs ", "administrative_area_level_2": "Eure"}}, {"model": "events.location", "pk": 9498, "fields": {"lat": "48.95918", "postal_code": "67110", "administrative_area_level_1_short_name": "Alsace", "street_number": "19", "lng": "7.63743", "locality": "Niederbronn-les-Bains", "country": "FR", "administrative_area_level_2_short_name": "67", "extra_info": null, "administrative_area_level_1": "Alsace", "route": "Rue du N", "administrative_area_level_2": "Bas-Rhin"}}, {"model": "events.location", "pk": 9499, "fields": {"lat": "48.95918", "postal_code": "67110", "administrative_area_level_1_short_name": "Alsace", "street_number": "19", "lng": "7.63743", "locality": "Niederbronn-les-Bains", "country": "FR", "administrative_area_level_2_short_name": "67", "extra_info": null, "administrative_area_level_1": "Alsace", "route": "Rue du N", "administrative_area_level_2": "Bas-Rhin"}}, {"model": "events.location", "pk": 9500, "fields": {"lat": "48.95918", "postal_code": "67110", "administrative_area_level_1_short_name": "Alsace", "street_number": "19", "lng": "7.63743", "locality": "Niederbronn-les-Bains", "country": "FR", "administrative_area_level_2_short_name": "67", "extra_info": null, "administrative_area_level_1": "Alsace", "route": "Rue du N", "administrative_area_level_2": "Bas-Rhin"}}, {"model": "events.location", "pk": 9501, "fields": {"lat": "48.95918", "postal_code": "67110", "administrative_area_level_1_short_name": "Alsace", "street_number": "19", "lng": "7.63743", "locality": "Niederbronn-les-Bains", "country": "FR", "administrative_area_level_2_short_name": "67", "extra_info": null, "administrative_area_level_1": "Alsace", "route": "Rue du N", "administrative_area_level_2": "Bas-Rhin"}}, {"model": "events.location", "pk": 9502, "fields": {"lat": "50.64642", "postal_code": "59160", "administrative_area_level_1_short_name": "Nord-Pas-de-Calais", "street_number": null, "lng": "2.98539", "locality": "Capinghem", "country": "FR", "administrative_area_level_2_short_name": "59", "extra_info": null, "administrative_area_level_1": "Nord-Pas-de-Calais", "route": "Piscine Municipale de Lomme - 435 avenue de Dunkerque", "administrative_area_level_2": "Nord"}}, {"model": "events.location", "pk": 9503, "fields": {"lat": "50.64642", "postal_code": "59160", "administrative_area_level_1_short_name": "Nord-Pas-de-Calais", "street_number": null, "lng": "2.98539", "locality": "Capinghem", "country": "FR", "administrative_area_level_2_short_name": "59", "extra_info": null, "administrative_area_level_1": "Nord-Pas-de-Calais", "route": "Piscine Municipale de Lomme - 435 avenue de Dunkerque", "administrative_area_level_2": "Nord"}}, {"model": "events.location", "pk": 9504, "fields": {"lat": "50.64642", "postal_code": "59160", "administrative_area_level_1_short_name": "Nord-Pas-de-Calais", "street_number": null, "lng": "2.98539", "locality": "Capinghem", "country": "FR", "administrative_area_level_2_short_name": "59", "extra_info": null, "administrative_area_level_1": "Nord-Pas-de-Calais", "route": "Piscine Municipale de Lomme - 435 avenue de Dunkerque", "administrative_area_level_2": "Nord"}}, {"model": "events.location", "pk": 9505, "fields": {"lat": "50.64642", "postal_code": "59160", "administrative_area_level_1_short_name": "Nord-Pas-de-Calais", "street_number": null, "lng": "2.98539", "locality": "Capinghem", "country": "FR", "administrative_area_level_2_short_name": "59", "extra_info": null, "administrative_area_level_1": "Nord-Pas-de-Calais", "route": "Piscine Municipale de Lomme - 435 avenue de Dunkerque", "administrative_area_level_2": "Nord"}}, {"model": "events.location", "pk": 9506, "fields": {"lat": "-21.17368", "postal_code": "97436", "administrative_area_level_1_short_name": "Saint-Paul", "street_number": null, "lng": "55.29033", "locality": "Saint-Leu", "country": "RE", "administrative_area_level_2_short_name": "974", "extra_info": null, "administrative_area_level_1": "Saint-Paul", "route": "Lagon", "administrative_area_level_2": "Saint-Leu"}}, {"model": "events.location", "pk": 9507, "fields": {"lat": "-21.17368", "postal_code": "97436", "administrative_area_level_1_short_name": "Saint-Paul", "street_number": null, "lng": "55.29033", "locality": "Saint-Leu", "country": "RE", "administrative_area_level_2_short_name": "974", "extra_info": null, "administrative_area_level_1": "Saint-Paul", "route": "Lagon", "administrative_area_level_2": "Saint-Leu"}}, {"model": "events.location", "pk": 9508, "fields": {"lat": "-21.17368", "postal_code": "97436", "administrative_area_level_1_short_name": "Saint-Paul", "street_number": null, "lng": "55.29033", "locality": "Saint-Leu", "country": "RE", "administrative_area_level_2_short_name": "974", "extra_info": null, "administrative_area_level_1": "Saint-Paul", "route": "Lagon", "administrative_area_level_2": "Saint-Leu"}}, {"model": "events.location", "pk": 9509, "fields": {"lat": "-21.17368", "postal_code": "97436", "administrative_area_level_1_short_name": "Saint-Paul", "street_number": null, "lng": "55.29033", "locality": "Saint-Leu", "country": "RE", "administrative_area_level_2_short_name": "974", "extra_info": null, "administrative_area_level_1": "Saint-Paul", "route": "Lagon", "administrative_area_level_2": "Saint-Leu"}}, {"model": "events.location", "pk": 9510, "fields": {"lat": "46.38067", "postal_code": "74500", "administrative_area_level_1_short_name": "RA", "street_number": null, "lng": "6.65433", "locality": "\u00c9vian-les-Bains", "country": "FR", "administrative_area_level_2_short_name": "74", "extra_info": null, "administrative_area_level_1": "Rhone-Alpes", "route": "Haute Savoie", "administrative_area_level_2": "Haute-Savoie"}}, {"model": "events.location", "pk": 9511, "fields": {"lat": "46.38067", "postal_code": "74500", "administrative_area_level_1_short_name": "RA", "street_number": null, "lng": "6.65433", "locality": "\u00c9vian-les-Bains", "country": "FR", "administrative_area_level_2_short_name": "74", "extra_info": null, "administrative_area_level_1": "Rhone-Alpes", "route": "Haute Savoie", "administrative_area_level_2": "Haute-Savoie"}}, {"model": "events.location", "pk": 9512, "fields": {"lat": "48.66905", "postal_code": "29660", "administrative_area_level_1_short_name": "", "street_number": null, "lng": "-3.90747", "locality": "Carantec", "country": "FR", "administrative_area_level_2_short_name": "29", "extra_info": null, "administrative_area_level_1": "", "route": "Plage du Kelenn", "administrative_area_level_2": "Finist\u00e8re"}}, {"model": "events.location", "pk": 9513, "fields": {"lat": "48.66905", "postal_code": "29660", "administrative_area_level_1_short_name": "", "street_number": null, "lng": "-3.90747", "locality": "Carantec", "country": "FR", "administrative_area_level_2_short_name": "29", "extra_info": null, "administrative_area_level_1": "", "route": "Plage du Kelenn", "administrative_area_level_2": "Finist\u00e8re"}}, {"model": "events.location", "pk": 9514, "fields": {"lat": "48.66905", "postal_code": "29660", "administrative_area_level_1_short_name": "", "street_number": null, "lng": "-3.90747", "locality": "Carantec", "country": "FR", "administrative_area_level_2_short_name": "29", "extra_info": null, "administrative_area_level_1": "", "route": "Plage du Kelenn", "administrative_area_level_2": "Finist\u00e8re"}}, {"model": "events.location", "pk": 9515, "fields": {"lat": "48.66905", "postal_code": "29660", "administrative_area_level_1_short_name": "", "street_number": null, "lng": "-3.90747", "locality": "Carantec", "country": "FR", "administrative_area_level_2_short_name": "29", "extra_info": null, "administrative_area_level_1": "", "route": "Plage du Kelenn", "administrative_area_level_2": "Finist\u00e8re"}}, {"model": "events.location", "pk": 9516, "fields": {"lat": "48.66905", "postal_code": "29660", "administrative_area_level_1_short_name": "", "street_number": null, "lng": "-3.90747", "locality": "Carantec", "country": "FR", "administrative_area_level_2_short_name": "29", "extra_info": null, "administrative_area_level_1": "", "route": "Plage du Kelenn", "administrative_area_level_2": "Finist\u00e8re"}}, {"model": "events.location", "pk": 9517, "fields": {"lat": "48.19302", "postal_code": "88800", "administrative_area_level_1_short_name": "Lorraine", "street_number": null, "lng": "5.93779", "locality": "Vittel", "country": "FR", "administrative_area_level_2_short_name": "88", "extra_info": null, "administrative_area_level_1": "Lorraine", "route": "Centre de Pr\u00e9paration Omnisports", "administrative_area_level_2": "Vosges"}}, {"model": "events.location", "pk": 9518, "fields": {"lat": "48.19302", "postal_code": "88800", "administrative_area_level_1_short_name": "Lorraine", "street_number": null, "lng": "5.93779", "locality": "Vittel", "country": "FR", "administrative_area_level_2_short_name": "88", "extra_info": null, "administrative_area_level_1": "Lorraine", "route": "Centre de Pr\u00e9paration Omnisports", "administrative_area_level_2": "Vosges"}}, {"model": "events.location", "pk": 9519, "fields": {"lat": "48.19302", "postal_code": "88800", "administrative_area_level_1_short_name": "Lorraine", "street_number": null, "lng": "5.93779", "locality": "Vittel", "country": "FR", "administrative_area_level_2_short_name": "88", "extra_info": null, "administrative_area_level_1": "Lorraine", "route": "Centre de Pr\u00e9paration Omnisports", "administrative_area_level_2": "Vosges"}}, {"model": "events.location", "pk": 9520, "fields": {"lat": "47.56625", "postal_code": "49140", "administrative_area_level_1_short_name": "Pays de la Loire", "street_number": null, "lng": "-0.36884", "locality": "Villev\u00eaque", "country": "FR", "administrative_area_level_2_short_name": "49", "extra_info": null, "administrative_area_level_1": "Pays de la Loire", "route": "Villev\u00e8que", "administrative_area_level_2": "Maine-et-Loire"}}, {"model": "events.location", "pk": 9521, "fields": {"lat": "47.56625", "postal_code": "49140", "administrative_area_level_1_short_name": "Pays de la Loire", "street_number": null, "lng": "-0.36884", "locality": "Villev\u00eaque", "country": "FR", "administrative_area_level_2_short_name": "49", "extra_info": null, "administrative_area_level_1": "Pays de la Loire", "route": "Villev\u00e8que", "administrative_area_level_2": "Maine-et-Loire"}}, {"model": "events.location", "pk": 9522, "fields": {"lat": "43.64993", "postal_code": "13300", "administrative_area_level_1_short_name": "PACA", "street_number": null, "lng": "5.07028", "locality": "Salon-de-Provence", "country": "FR", "administrative_area_level_2_short_name": "13", "extra_info": null, "administrative_area_level_1": "Provence-Alpes-C\u00f4te d'Azur", "route": "Centre Nautique+Piste athl\u00e9tisme", "administrative_area_level_2": "Bouches-du-Rhone"}}, {"model": "events.location", "pk": 9523, "fields": {"lat": "43.64993", "postal_code": "13300", "administrative_area_level_1_short_name": "PACA", "street_number": null, "lng": "5.07028", "locality": "Salon-de-Provence", "country": "FR", "administrative_area_level_2_short_name": "13", "extra_info": null, "administrative_area_level_1": "Provence-Alpes-C\u00f4te d'Azur", "route": "Centre Nautique+Piste athl\u00e9tisme", "administrative_area_level_2": "Bouches-du-Rhone"}}, {"model": "events.location", "pk": 9524, "fields": {"lat": "43.64993", "postal_code": "13300", "administrative_area_level_1_short_name": "PACA", "street_number": null, "lng": "5.07028", "locality": "Salon-de-Provence", "country": "FR", "administrative_area_level_2_short_name": "13", "extra_info": null, "administrative_area_level_1": "Provence-Alpes-C\u00f4te d'Azur", "route": "Centre Nautique+Piste athl\u00e9tisme", "administrative_area_level_2": "Bouches-du-Rhone"}}, {"model": "events.location", "pk": 9525, "fields": {"lat": "43.64993", "postal_code": "13300", "administrative_area_level_1_short_name": "PACA", "street_number": null, "lng": "5.07028", "locality": "Salon-de-Provence", "country": "FR", "administrative_area_level_2_short_name": "13", "extra_info": null, "administrative_area_level_1": "Provence-Alpes-C\u00f4te d'Azur", "route": "Centre Nautique+Piste athl\u00e9tisme", "administrative_area_level_2": "Bouches-du-Rhone"}}, {"model": "events.location", "pk": 9526, "fields": {"lat": "49.54844", "postal_code": "76710", "administrative_area_level_1_short_name": "Haute-Normandie", "street_number": null, "lng": "1.07120", "locality": "Montville", "country": "FR", "administrative_area_level_2_short_name": "76", "extra_info": null, "administrative_area_level_1": "Haute-Normandie", "route": "Piscine communautaire  Andr\u00e9 Martin de Montville et espace Jean Loup Chr\u00e9tien", "administrative_area_level_2": "Seine-Maritime"}}, {"model": "events.location", "pk": 9527, "fields": {"lat": "49.54844", "postal_code": "76710", "administrative_area_level_1_short_name": "Haute-Normandie", "street_number": null, "lng": "1.07120", "locality": "Montville", "country": "FR", "administrative_area_level_2_short_name": "76", "extra_info": null, "administrative_area_level_1": "Haute-Normandie", "route": "Piscine communautaire  Andr\u00e9 Martin de Montville et espace Jean Loup Chr\u00e9tien", "administrative_area_level_2": "Seine-Maritime"}}, {"model": "events.location", "pk": 9528, "fields": {"lat": "49.54844", "postal_code": "76710", "administrative_area_level_1_short_name": "Haute-Normandie", "street_number": null, "lng": "1.07120", "locality": "Montville", "country": "FR", "administrative_area_level_2_short_name": "76", "extra_info": null, "administrative_area_level_1": "Haute-Normandie", "route": "Piscine communautaire  Andr\u00e9 Martin de Montville et espace Jean Loup Chr\u00e9tien", "administrative_area_level_2": "Seine-Maritime"}}, {"model": "events.location", "pk": 9529, "fields": {"lat": "49.54844", "postal_code": "76710", "administrative_area_level_1_short_name": "Haute-Normandie", "street_number": null, "lng": "1.07120", "locality": "Montville", "country": "FR", "administrative_area_level_2_short_name": "76", "extra_info": null, "administrative_area_level_1": "Haute-Normandie", "route": "Piscine communautaire  Andr\u00e9 Martin de Montville et espace Jean Loup Chr\u00e9tien", "administrative_area_level_2": "Seine-Maritime"}}, {"model": "events.location", "pk": 9530, "fields": {"lat": "46.24294", "postal_code": "01100", "administrative_area_level_1_short_name": "RA", "street_number": null, "lng": "5.63694", "locality": "Oyonnax", "country": "FR", "administrative_area_level_2_short_name": "01", "extra_info": null, "administrative_area_level_1": "Rhone-Alpes", "route": "Centre nautique Robert Sautin, 148 cours de Verdun", "administrative_area_level_2": "Ain"}}, {"model": "events.location", "pk": 9531, "fields": {"lat": "46.24294", "postal_code": "01100", "administrative_area_level_1_short_name": "RA", "street_number": null, "lng": "5.63694", "locality": "Oyonnax", "country": "FR", "administrative_area_level_2_short_name": "01", "extra_info": null, "administrative_area_level_1": "Rhone-Alpes", "route": "Centre nautique Robert Sautin, 148 cours de Verdun", "administrative_area_level_2": "Ain"}}, {"model": "events.location", "pk": 9532, "fields": {"lat": "46.24294", "postal_code": "01100", "administrative_area_level_1_short_name": "RA", "street_number": null, "lng": "5.63694", "locality": "Oyonnax", "country": "FR", "administrative_area_level_2_short_name": "01", "extra_info": null, "administrative_area_level_1": "Rhone-Alpes", "route": "Centre nautique Robert Sautin, 148 cours de Verdun", "administrative_area_level_2": "Ain"}}, {"model": "events.location", "pk": 9533, "fields": {"lat": "46.24294", "postal_code": "01100", "administrative_area_level_1_short_name": "RA", "street_number": null, "lng": "5.63694", "locality": "Oyonnax", "country": "FR", "administrative_area_level_2_short_name": "01", "extra_info": null, "administrative_area_level_1": "Rhone-Alpes", "route": "Centre nautique Robert Sautin, 148 cours de Verdun", "administrative_area_level_2": "Ain"}}, {"model": "events.location", "pk": 9534, "fields": {"lat": "46.24294", "postal_code": "01100", "administrative_area_level_1_short_name": "RA", "street_number": null, "lng": "5.63694", "locality": "Oyonnax", "country": "FR", "administrative_area_level_2_short_name": "01", "extra_info": null, "administrative_area_level_1": "Rhone-Alpes", "route": "Centre nautique Robert Sautin, 148 cours de Verdun", "administrative_area_level_2": "Ain"}}, {"model": "events.location", "pk": 9535, "fields": {"lat": "46.24294", "postal_code": "01100", "administrative_area_level_1_short_name": "RA", "street_number": null, "lng": "5.63694", "locality": "Oyonnax", "country": "FR", "administrative_area_level_2_short_name": "01", "extra_info": null, "administrative_area_level_1": "Rhone-Alpes", "route": "Centre nautique Robert Sautin, 148 cours de Verdun", "administrative_area_level_2": "Ain"}}, {"model": "events.location", "pk": 9536, "fields": {"lat": "50.16875", "postal_code": "59400", "administrative_area_level_1_short_name": "Nord-Pas-de-Calais", "street_number": null, "lng": "3.25120", "locality": "Cambrai", "country": "FR", "administrative_area_level_2_short_name": "59", "extra_info": null, "administrative_area_level_1": "Nord-Pas-de-Calais", "route": "Piscine Libert\u00e9", "administrative_area_level_2": "Nord"}}, {"model": "events.location", "pk": 9537, "fields": {"lat": "50.16875", "postal_code": "59400", "administrative_area_level_1_short_name": "Nord-Pas-de-Calais", "street_number": null, "lng": "3.25120", "locality": "Cambrai", "country": "FR", "administrative_area_level_2_short_name": "59", "extra_info": null, "administrative_area_level_1": "Nord-Pas-de-Calais", "route": "Piscine Libert\u00e9", "administrative_area_level_2": "Nord"}}, {"model": "events.location", "pk": 9538, "fields": {"lat": "50.16875", "postal_code": "59400", "administrative_area_level_1_short_name": "Nord-Pas-de-Calais", "street_number": null, "lng": "3.25120", "locality": "Cambrai", "country": "FR", "administrative_area_level_2_short_name": "59", "extra_info": null, "administrative_area_level_1": "Nord-Pas-de-Calais", "route": "Piscine Libert\u00e9", "administrative_area_level_2": "Nord"}}, {"model": "events.location", "pk": 9539, "fields": {"lat": "48.12517", "postal_code": "35510", "administrative_area_level_1_short_name": "Bretagne", "street_number": null, "lng": "-1.58765", "locality": "Cesson-S\u00e9vign\u00e9", "country": "FR", "administrative_area_level_2_short_name": "35", "extra_info": null, "administrative_area_level_1": "Bretagne", "route": "Boulevard de D\u00e9zerseul", "administrative_area_level_2": "Ille-et-Vilaine"}}, {"model": "events.location", "pk": 9540, "fields": {"lat": "48.12517", "postal_code": "35510", "administrative_area_level_1_short_name": "Bretagne", "street_number": null, "lng": "-1.58765", "locality": "Cesson-S\u00e9vign\u00e9", "country": "FR", "administrative_area_level_2_short_name": "35", "extra_info": null, "administrative_area_level_1": "Bretagne", "route": "Boulevard de D\u00e9zerseul", "administrative_area_level_2": "Ille-et-Vilaine"}}, {"model": "events.location", "pk": 9541, "fields": {"lat": "48.59759", "postal_code": "91100", "administrative_area_level_1_short_name": "IDF", "street_number": null, "lng": "2.46264", "locality": "Corbeil-Essonnes", "country": "FR", "administrative_area_level_2_short_name": "91", "extra_info": null, "administrative_area_level_1": "\u00cele-de-France", "route": "stade nautique G.Menut", "administrative_area_level_2": "Essonne"}}, {"model": "events.location", "pk": 9542, "fields": {"lat": "48.59759", "postal_code": "91100", "administrative_area_level_1_short_name": "IDF", "street_number": null, "lng": "2.46264", "locality": "Corbeil-Essonnes", "country": "FR", "administrative_area_level_2_short_name": "91", "extra_info": null, "administrative_area_level_1": "\u00cele-de-France", "route": "stade nautique G.Menut", "administrative_area_level_2": "Essonne"}}, {"model": "events.location", "pk": 9543, "fields": {"lat": "48.59759", "postal_code": "91100", "administrative_area_level_1_short_name": "IDF", "street_number": null, "lng": "2.46264", "locality": "Corbeil-Essonnes", "country": "FR", "administrative_area_level_2_short_name": "91", "extra_info": null, "administrative_area_level_1": "\u00cele-de-France", "route": "stade nautique G.Menut", "administrative_area_level_2": "Essonne"}}, {"model": "events.location", "pk": 9544, "fields": {"lat": "48.59759", "postal_code": "91100", "administrative_area_level_1_short_name": "IDF", "street_number": null, "lng": "2.46264", "locality": "Corbeil-Essonnes", "country": "FR", "administrative_area_level_2_short_name": "91", "extra_info": null, "administrative_area_level_1": "\u00cele-de-France", "route": "stade nautique G.Menut", "administrative_area_level_2": "Essonne"}}, {"model": "events.location", "pk": 9545, "fields": {"lat": "48.59759", "postal_code": "91100", "administrative_area_level_1_short_name": "IDF", "street_number": null, "lng": "2.46264", "locality": "Corbeil-Essonnes", "country": "FR", "administrative_area_level_2_short_name": "91", "extra_info": null, "administrative_area_level_1": "\u00cele-de-France", "route": "stade nautique G.Menut", "administrative_area_level_2": "Essonne"}}, {"model": "events.location", "pk": 9546, "fields": {"lat": "49.92642", "postal_code": "76200", "administrative_area_level_1_short_name": "Upper Normandy", "street_number": null, "lng": "1.09369", "locality": "Dieppe", "country": "FR", "administrative_area_level_2_short_name": "76", "extra_info": null, "administrative_area_level_1": "Upper Normandy", "route": "Piscine des bains", "administrative_area_level_2": "Seine-Maritime"}}, {"model": "events.location", "pk": 9547, "fields": {"lat": "49.92642", "postal_code": "76200", "administrative_area_level_1_short_name": "Upper Normandy", "street_number": null, "lng": "1.09369", "locality": "Dieppe", "country": "FR", "administrative_area_level_2_short_name": "76", "extra_info": null, "administrative_area_level_1": "Upper Normandy", "route": "Piscine des bains", "administrative_area_level_2": "Seine-Maritime"}}, {"model": "events.location", "pk": 9548, "fields": {"lat": "49.92642", "postal_code": "76200", "administrative_area_level_1_short_name": "Upper Normandy", "street_number": null, "lng": "1.09369", "locality": "Dieppe", "country": "FR", "administrative_area_level_2_short_name": "76", "extra_info": null, "administrative_area_level_1": "Upper Normandy", "route": "Piscine des bains", "administrative_area_level_2": "Seine-Maritime"}}, {"model": "events.location", "pk": 9549, "fields": {"lat": "49.92642", "postal_code": "76200", "administrative_area_level_1_short_name": "Upper Normandy", "street_number": null, "lng": "1.09369", "locality": "Dieppe", "country": "FR", "administrative_area_level_2_short_name": "76", "extra_info": null, "administrative_area_level_1": "Upper Normandy", "route": "Piscine des bains", "administrative_area_level_2": "Seine-Maritime"}}, {"model": "events.location", "pk": 9550, "fields": {"lat": "49.92642", "postal_code": "76200", "administrative_area_level_1_short_name": "Upper Normandy", "street_number": null, "lng": "1.09369", "locality": "Dieppe", "country": "FR", "administrative_area_level_2_short_name": "76", "extra_info": null, "administrative_area_level_1": "Upper Normandy", "route": "Piscine des bains", "administrative_area_level_2": "Seine-Maritime"}}, {"model": "events.location", "pk": 9551, "fields": {"lat": "45.17746", "postal_code": "38400", "administrative_area_level_1_short_name": "RA", "street_number": null, "lng": "5.76787", "locality": "Saint-Martin-d'H\u00e8res", "country": "FR", "administrative_area_level_2_short_name": "38", "extra_info": null, "administrative_area_level_1": "Rhone-Alpes", "route": "Piscine Universitaire / Centre Sportif Universitaire", "administrative_area_level_2": "Isere"}}, {"model": "events.location", "pk": 9552, "fields": {"lat": "45.17746", "postal_code": "38400", "administrative_area_level_1_short_name": "RA", "street_number": null, "lng": "5.76787", "locality": "Saint-Martin-d'H\u00e8res", "country": "FR", "administrative_area_level_2_short_name": "38", "extra_info": null, "administrative_area_level_1": "Rhone-Alpes", "route": "Piscine Universitaire / Centre Sportif Universitaire", "administrative_area_level_2": "Isere"}}, {"model": "events.location", "pk": 9553, "fields": {"lat": "45.17746", "postal_code": "38400", "administrative_area_level_1_short_name": "RA", "street_number": null, "lng": "5.76787", "locality": "Saint-Martin-d'H\u00e8res", "country": "FR", "administrative_area_level_2_short_name": "38", "extra_info": null, "administrative_area_level_1": "Rhone-Alpes", "route": "Piscine Universitaire / Centre Sportif Universitaire", "administrative_area_level_2": "Isere"}}, {"model": "events.location", "pk": 9554, "fields": {"lat": "45.17746", "postal_code": "38400", "administrative_area_level_1_short_name": "RA", "street_number": null, "lng": "5.76787", "locality": "Saint-Martin-d'H\u00e8res", "country": "FR", "administrative_area_level_2_short_name": "38", "extra_info": null, "administrative_area_level_1": "Rhone-Alpes", "route": "Piscine Universitaire / Centre Sportif Universitaire", "administrative_area_level_2": "Isere"}}, {"model": "events.location", "pk": 9555, "fields": {"lat": "45.17746", "postal_code": "38400", "administrative_area_level_1_short_name": "RA", "street_number": null, "lng": "5.76787", "locality": "Saint-Martin-d'H\u00e8res", "country": "FR", "administrative_area_level_2_short_name": "38", "extra_info": null, "administrative_area_level_1": "Rhone-Alpes", "route": "Piscine Universitaire / Centre Sportif Universitaire", "administrative_area_level_2": "Isere"}}, {"model": "events.location", "pk": 9556, "fields": {"lat": "43.69873", "postal_code": "34400", "administrative_area_level_1_short_name": "Languedoc-Roussillon", "street_number": null, "lng": "4.08999", "locality": "Lunel", "country": "FR", "administrative_area_level_2_short_name": "34", "extra_info": null, "administrative_area_level_1": "Languedoc-Roussillon", "route": "Piscine Aqualuna 8h", "administrative_area_level_2": "H\u00e9rault"}}, {"model": "events.location", "pk": 9557, "fields": {"lat": "43.69873", "postal_code": "34400", "administrative_area_level_1_short_name": "Languedoc-Roussillon", "street_number": null, "lng": "4.08999", "locality": "Lunel", "country": "FR", "administrative_area_level_2_short_name": "34", "extra_info": null, "administrative_area_level_1": "Languedoc-Roussillon", "route": "Piscine Aqualuna 8h", "administrative_area_level_2": "H\u00e9rault"}}, {"model": "events.location", "pk": 9558, "fields": {"lat": "43.69873", "postal_code": "34400", "administrative_area_level_1_short_name": "Languedoc-Roussillon", "street_number": null, "lng": "4.08999", "locality": "Lunel", "country": "FR", "administrative_area_level_2_short_name": "34", "extra_info": null, "administrative_area_level_1": "Languedoc-Roussillon", "route": "Piscine Aqualuna 8h", "administrative_area_level_2": "H\u00e9rault"}}, {"model": "events.location", "pk": 9559, "fields": {"lat": "43.69873", "postal_code": "34400", "administrative_area_level_1_short_name": "Languedoc-Roussillon", "street_number": null, "lng": "4.08999", "locality": "Lunel", "country": "FR", "administrative_area_level_2_short_name": "34", "extra_info": null, "administrative_area_level_1": "Languedoc-Roussillon", "route": "Piscine Aqualuna 8h", "administrative_area_level_2": "H\u00e9rault"}}, {"model": "events.location", "pk": 9560, "fields": {"lat": "50.61381", "postal_code": "59000", "administrative_area_level_1_short_name": "Nord-Pas-de-Calais", "street_number": null, "lng": "3.04236", "locality": "Lille", "country": "FR", "administrative_area_level_2_short_name": "59", "extra_info": null, "administrative_area_level_1": "Nord-Pas-de-Calais", "route": "PISCINE MARX DORMOY", "administrative_area_level_2": "Nord"}}, {"model": "events.location", "pk": 9561, "fields": {"lat": "50.61381", "postal_code": "59000", "administrative_area_level_1_short_name": "Nord-Pas-de-Calais", "street_number": null, "lng": "3.04236", "locality": "Lille", "country": "FR", "administrative_area_level_2_short_name": "59", "extra_info": null, "administrative_area_level_1": "Nord-Pas-de-Calais", "route": "PISCINE MARX DORMOY", "administrative_area_level_2": "Nord"}}, {"model": "events.location", "pk": 9562, "fields": {"lat": "50.61381", "postal_code": "59000", "administrative_area_level_1_short_name": "Nord-Pas-de-Calais", "street_number": null, "lng": "3.04236", "locality": "Lille", "country": "FR", "administrative_area_level_2_short_name": "59", "extra_info": null, "administrative_area_level_1": "Nord-Pas-de-Calais", "route": "PISCINE MARX DORMOY", "administrative_area_level_2": "Nord"}}, {"model": "events.location", "pk": 9563, "fields": {"lat": "50.61381", "postal_code": "59000", "administrative_area_level_1_short_name": "Nord-Pas-de-Calais", "street_number": null, "lng": "3.04236", "locality": "Lille", "country": "FR", "administrative_area_level_2_short_name": "59", "extra_info": null, "administrative_area_level_1": "Nord-Pas-de-Calais", "route": "PISCINE MARX DORMOY", "administrative_area_level_2": "Nord"}}, {"model": "events.location", "pk": 9564, "fields": {"lat": "50.61381", "postal_code": "59000", "administrative_area_level_1_short_name": "Nord-Pas-de-Calais", "street_number": null, "lng": "3.04236", "locality": "Lille", "country": "FR", "administrative_area_level_2_short_name": "59", "extra_info": null, "administrative_area_level_1": "Nord-Pas-de-Calais", "route": "PISCINE MARX DORMOY", "administrative_area_level_2": "Nord"}}, {"model": "events.location", "pk": 9565, "fields": {"lat": "48.82936", "postal_code": "75012", "administrative_area_level_1_short_name": "IDF", "street_number": null, "lng": "2.42654", "locality": "Paris", "country": "FR", "administrative_area_level_2_short_name": "75", "extra_info": null, "administrative_area_level_1": "\u00cele-de-France", "route": "Centre nautique Roger Le Gall", "administrative_area_level_2": "Paris"}},